[
    {
        "id": "1:2317",
        "name": "Lancaster Ave & Malin Rd - MBNS",
        "lat": 40.040428,
        "lon": -75.541873
    },
    {
        "id": "1:2315",
        "name": "Springdale Dr & Beldon Blvd - FS",
        "lat": 40.029261,
        "lon": -75.605645
    },
    {
        "id": "1:2",
        "name": "Ridge Av & Wissahickon Transfer Center",
        "lat": 40.014986,
        "lon": -75.206826,
        "stationId": "1:31032",
        "cluster": "31032"
    },
    {
        "id": "1:2312",
        "name": "Pottstown Pk & Sunrise Blvd",
        "lat": 40.038272,
        "lon": -75.632269
    },
    {
        "id": "1:5",
        "name": "Roosevelt Blvd & 5th St",
        "lat": 40.023465,
        "lon": -75.133487
    },
    {
        "id": "1:4",
        "name": "Roosevelt Blvd & Broad St - FS",
        "lat": 40.018128,
        "lon": -75.148887
    },
    {
        "id": "1:7",
        "name": "Roosevelt Blvd & Pratt St",
        "lat": 40.028754,
        "lon": -75.089524
    },
    {
        "id": "1:2311",
        "name": "Pottstown Pk & Marchwood Blvd",
        "lat": 40.04994,
        "lon": -75.636098
    },
    {
        "id": "1:9",
        "name": "Roosevelt Blvd & Holme Av",
        "lat": 40.058496,
        "lon": -75.044312
    },
    {
        "id": "1:8",
        "name": "Roosevelt Blvd & Cottman Av - FS",
        "lat": 40.04461,
        "lon": -75.053657
    },
    {
        "id": "1:2318",
        "name": "Lancaster Av & Conestoga Rd",
        "lat": 40.042552,
        "lon": -75.531199
    },
    {
        "id": "1:2306",
        "name": "Eagleview Blvd & Dowlin Forge Rd - FS",
        "lat": 40.053229,
        "lon": -75.664051
    },
    {
        "id": "1:2302",
        "name": "Constitution Dr & Eagleview Blvd",
        "lat": 40.067828,
        "lon": -75.67944
    },
    {
        "id": "1:2300",
        "name": "Eagleview Blvd & Mukolian Dr - MBNS",
        "lat": 40.050946,
        "lon": -75.662755
    },
    {
        "id": "1:2307",
        "name": "Eagleview Blvd & Mukolian Dr - FS",
        "lat": 40.050892,
        "lon": -75.663169
    },
    {
        "id": "1:2308",
        "name": "Uwchlan Av & Pottstown Pk - FS",
        "lat": 40.057438,
        "lon": -75.656366
    },
    {
        "id": "1:1007",
        "name": "Frankford Av & Knorr St",
        "lat": 40.032383,
        "lon": -75.050954
    },
    {
        "id": "1:1008",
        "name": "Cottman Av & Oxford Av",
        "lat": 40.061288,
        "lon": -75.083657
    },
    {
        "id": "1:1006",
        "name": "Frankford Av & Princeton Av",
        "lat": 40.034845,
        "lon": -75.044664
    },
    {
        "id": "1:1003",
        "name": "Oak Lane & Cheltenham Av",
        "lat": 40.054567,
        "lon": -75.125045
    },
    {
        "id": "1:1009",
        "name": "Cottman Av & Summerdale Av",
        "lat": 40.05432,
        "lon": -75.071664
    },
    {
        "id": "1:2321",
        "name": "Moreland & Fitzwatertown Rd",
        "lat": 40.148876,
        "lon": -75.129415
    },
    {
        "id": "1:2322",
        "name": "800 Business Center Dr",
        "lat": 40.168708,
        "lon": -75.152252
    },
    {
        "id": "1:1029",
        "name": "Central Av & Cottman Av - FS",
        "lat": 40.065501,
        "lon": -75.090083
    },
    {
        "id": "1:1027",
        "name": "Cottman Av & Whitaker Av - FS",
        "lat": 40.057512,
        "lon": -75.076887
    },
    {
        "id": "1:1028",
        "name": "Cottman Av & Oxford Av",
        "lat": 40.061234,
        "lon": -75.083303
    },
    {
        "id": "1:2356",
        "name": "Paoli Pk & Concord Rd",
        "lat": 39.968846,
        "lon": -75.586362
    },
    {
        "id": "1:1025",
        "name": "Cottman Av & Loretto Av",
        "lat": 40.052166,
        "lon": -75.067618
    },
    {
        "id": "1:1023",
        "name": "Cottman Av & Roosevelt Blvd",
        "lat": 40.044289,
        "lon": -75.053907
    },
    {
        "id": "1:1024",
        "name": "Cottman Av & Bustleton Av - FS",
        "lat": 40.047896,
        "lon": -75.060131
    },
    {
        "id": "1:1032",
        "name": "Bridge St & Thompson St",
        "lat": 40.004308,
        "lon": -75.067151
    },
    {
        "id": "1:1030",
        "name": "Oak Lane Rd & Valley Rd",
        "lat": 40.054932,
        "lon": -75.124558
    },
    {
        "id": "1:1019",
        "name": "State Rd & Rhawn St",
        "lat": 40.031363,
        "lon": -75.021712
    },
    {
        "id": "1:1016",
        "name": "State Rd & Rhawn St",
        "lat": 40.030759,
        "lon": -75.022543
    },
    {
        "id": "1:2347",
        "name": "Conchester Hwy & Baltimore Pk - MBFS",
        "lat": 39.883534,
        "lon": -75.524545
    },
    {
        "id": "1:1013",
        "name": "Cottman Av & Roosevelt Blvd",
        "lat": 40.044667,
        "lon": -75.054791
    },
    {
        "id": "1:1021",
        "name": "Cottman Av & Ditman St",
        "lat": 40.030819,
        "lon": -75.035629
    },
    {
        "id": "1:1047",
        "name": "Wyoming Av & Castor Av - MBNS",
        "lat": 40.01831,
        "lon": -75.099041
    },
    {
        "id": "1:1045",
        "name": "Wyoming Av & Broad St",
        "lat": 40.024552,
        "lon": -75.148247
    },
    {
        "id": "1:1046",
        "name": "Wyoming Av & 5th St",
        "lat": 40.022653,
        "lon": -75.133632
    },
    {
        "id": "1:1055",
        "name": "Cadwalader Av & Township Line Rd",
        "lat": 40.081404,
        "lon": -75.116874
    },
    {
        "id": "1:1052",
        "name": "Easton Rd & Glenside Av",
        "lat": 40.100429,
        "lon": -75.153558
    },
    {
        "id": "1:1053",
        "name": "Township Line Rd & Greenwood Av - FS",
        "lat": 40.092099,
        "lon": -75.136646
    },
    {
        "id": "1:1051",
        "name": "Willow Grove Av & Wyndmoor St - FS",
        "lat": 40.073858,
        "lon": -75.197522
    },
    {
        "id": "1:1036",
        "name": "Bridge St & Thompson St",
        "lat": 40.004371,
        "lon": -75.067328
    },
    {
        "id": "1:1037",
        "name": "Richmond St & Westmoreland St - FS",
        "lat": 39.983843,
        "lon": -75.09985
    },
    {
        "id": "1:1041",
        "name": "Wyoming Av & 5th St",
        "lat": 40.022751,
        "lon": -75.133384
    },
    {
        "id": "1:1042",
        "name": "Wyoming Av & Broad St",
        "lat": 40.024605,
        "lon": -75.147691
    },
    {
        "id": "1:11119",
        "name": "Ogontz Av & 79th Av",
        "lat": 40.072484,
        "lon": -75.157971
    },
    {
        "id": "1:1069",
        "name": "Snyder Av & 20th St",
        "lat": 39.925569,
        "lon": -75.179339
    },
    {
        "id": "1:1068",
        "name": "Snyder Av & 29th St",
        "lat": 39.92749,
        "lon": -75.194395
    },
    {
        "id": "1:25750",
        "name": "Upland Av & 15th St",
        "lat": 39.857227,
        "lon": -75.367647
    },
    {
        "id": "1:11111",
        "name": "Ogontz Av & 74th Av",
        "lat": 40.067054,
        "lon": -75.156371
    },
    {
        "id": "1:11112",
        "name": "Ogontz Av & 76h Av",
        "lat": 40.070011,
        "lon": -75.157235
    },
    {
        "id": "1:11113",
        "name": "Ogontz Av & 76th Av",
        "lat": 40.069885,
        "lon": -75.15707
    },
    {
        "id": "1:11115",
        "name": "Ogontz Av & 77th Av",
        "lat": 40.070823,
        "lon": -75.157481
    },
    {
        "id": "1:11117",
        "name": "Ogontz Av & 78th Av",
        "lat": 40.071618,
        "lon": -75.157726
    },
    {
        "id": "1:24428",
        "name": "Fisher Av & A St",
        "lat": 40.030449,
        "lon": -75.120608
    },
    {
        "id": "1:24429",
        "name": "63rd St & Eastwick Av",
        "lat": 39.919963,
        "lon": -75.222655
    },
    {
        "id": "1:1076",
        "name": "Fitzwatertown Rd & Jenkintown Rd - FS",
        "lat": 40.125445,
        "lon": -75.164636
    },
    {
        "id": "1:25751",
        "name": "15th St & Shaw Terrace",
        "lat": 39.858012,
        "lon": -75.365948
    },
    {
        "id": "1:24420",
        "name": "Lindley Av & 3rd St",
        "lat": 40.028347,
        "lon": -75.129436
    },
    {
        "id": "1:1077",
        "name": "Moreland Rd & Fitzwater Rd - MBFS",
        "lat": 40.149638,
        "lon": -75.130703
    },
    {
        "id": "1:25752",
        "name": "15th St & Arbor Dr",
        "lat": 39.858582,
        "lon": -75.364556
    },
    {
        "id": "1:24421",
        "name": "2nd St & Lindley Av - FS",
        "lat": 40.02769,
        "lon": -75.127405
    },
    {
        "id": "1:24422",
        "name": "2nd St & Duncannon Av",
        "lat": 40.029563,
        "lon": -75.126641
    },
    {
        "id": "1:24423",
        "name": "2nd St & Fisher Av",
        "lat": 40.031115,
        "lon": -75.126303
    },
    {
        "id": "1:25754",
        "name": "Edgmont Av & 14th St",
        "lat": 39.858438,
        "lon": -75.361773
    },
    {
        "id": "1:1072",
        "name": "Snyder Av & 18th St",
        "lat": 39.92525,
        "lon": -75.17594
    },
    {
        "id": "1:24424",
        "name": "63rd St & Passyunk Av - FS",
        "lat": 39.917382,
        "lon": -75.216347
    },
    {
        "id": "1:25756",
        "name": "Bethel Rd & Highland Av - MBFS",
        "lat": 39.843014,
        "lon": -75.401794
    },
    {
        "id": "1:24425",
        "name": "Fisher Av & Mascher St",
        "lat": 40.030932,
        "lon": -75.124471
    },
    {
        "id": "1:24426",
        "name": "63rd St & Passyunk Av - MBFS",
        "lat": 39.918535,
        "lon": -75.219207
    },
    {
        "id": "1:25758",
        "name": "Bethel Rd & Felton St - FS",
        "lat": 39.844387,
        "lon": -75.397785
    },
    {
        "id": "1:24427",
        "name": "Fisher Av & Front St",
        "lat": 40.030668,
        "lon": -75.122557
    },
    {
        "id": "1:11108",
        "name": "Ogontz Av & 71st Av",
        "lat": 40.06218,
        "lon": -75.151659
    },
    {
        "id": "1:12438",
        "name": "Ridge Pk & Spring Mill Rd",
        "lat": 40.092976,
        "lon": -75.280061
    },
    {
        "id": "1:1058",
        "name": "St Vincent St & Roosevelt Blvd",
        "lat": 40.042634,
        "lon": -75.055653
    },
    {
        "id": "1:1056",
        "name": "Cottman Av & Bustleton Av",
        "lat": 40.04778,
        "lon": -75.060179
    },
    {
        "id": "1:11102",
        "name": "Ogontz Av & 67th Av",
        "lat": 40.056275,
        "lon": -75.149553
    },
    {
        "id": "1:11103",
        "name": "Ogontz Av & 67th Av",
        "lat": 40.056132,
        "lon": -75.149424
    },
    {
        "id": "1:11104",
        "name": "Ogontz Av & 68th Av",
        "lat": 40.057578,
        "lon": -75.149359
    },
    {
        "id": "1:11105",
        "name": "Ogontz Av & 68th Av",
        "lat": 40.057435,
        "lon": -75.149229
    },
    {
        "id": "1:25748",
        "name": "22nd St & Wetherill St",
        "lat": 39.860807,
        "lon": -75.370427
    },
    {
        "id": "1:24417",
        "name": "Lindley Av & 7th St",
        "lat": 40.029183,
        "lon": -75.135934
    },
    {
        "id": "1:24418",
        "name": "Lindley Av & 6th St",
        "lat": 40.028965,
        "lon": -75.134256
    },
    {
        "id": "1:24419",
        "name": "Lindley Av & 4th St",
        "lat": 40.028474,
        "lon": -75.130416
    },
    {
        "id": "1:25740",
        "name": "Edgmont Av & Avon Rd",
        "lat": 39.866155,
        "lon": -75.375223
    },
    {
        "id": "1:1066",
        "name": "Willow Grove Av & Wyndmoor Station",
        "lat": 40.07409,
        "lon": -75.19751
    },
    {
        "id": "1:24410",
        "name": "Lindley Av & Old York Rd",
        "lat": 40.030206,
        "lon": -75.146097
    },
    {
        "id": "1:1063",
        "name": "Greenwood Av & Glenside Av",
        "lat": 40.092353,
        "lon": -75.138325
    },
    {
        "id": "1:24411",
        "name": "Lindley Av & 13th St",
        "lat": 40.030113,
        "lon": -75.144513
    },
    {
        "id": "1:25742",
        "name": "Edgmont Av & Elkington Blvd",
        "lat": 39.86519,
        "lon": -75.373054
    },
    {
        "id": "1:1064",
        "name": "Glenside Av & Easton Rd",
        "lat": 40.100581,
        "lon": -75.153309
    },
    {
        "id": "1:25743",
        "name": "Edgmont Av & 24th St",
        "lat": 39.864493,
        "lon": -75.371309
    },
    {
        "id": "1:24412",
        "name": "Lindley Av & 12th St",
        "lat": 40.03002,
        "lon": -75.142917
    },
    {
        "id": "1:25744",
        "name": "Edgmont Av & 22nd St - MBNS",
        "lat": 39.863921,
        "lon": -75.369292
    },
    {
        "id": "1:24413",
        "name": "Lindley Av & 11th St",
        "lat": 40.029874,
        "lon": -75.141334
    },
    {
        "id": "1:1062",
        "name": "Royal Av & Mulford Rd - Bishop McDevitt HS",
        "lat": 40.093822,
        "lon": -75.1566
    },
    {
        "id": "1:24414",
        "name": "Lindley Av & 10th St",
        "lat": 40.029674,
        "lon": -75.139751
    },
    {
        "id": "1:24415",
        "name": "Lindley Av & 9th St",
        "lat": 40.029492,
        "lon": -75.138132
    },
    {
        "id": "1:1060",
        "name": "Township Line Rd & Cadwalader Av",
        "lat": 40.081234,
        "lon": -75.11678
    },
    {
        "id": "1:24416",
        "name": "Lindley Av & 8th St",
        "lat": 40.029364,
        "lon": -75.137186
    },
    {
        "id": "1:1089",
        "name": "Tacony St & Comly St",
        "lat": 40.013727,
        "lon": -75.056005
    },
    {
        "id": "1:1090",
        "name": "Torresdale Av & Cottman Av - FS",
        "lat": 40.030174,
        "lon": -75.034947
    },
    {
        "id": "1:24406",
        "name": "Lindley Av & 15th St",
        "lat": 40.0308,
        "lon": -75.148317
    },
    {
        "id": "1:25737",
        "name": "Edgmont Av & Chelton Rd",
        "lat": 39.867307,
        "lon": -75.377864
    },
    {
        "id": "1:1091",
        "name": "Rhawn St & State Rd",
        "lat": 40.031782,
        "lon": -75.022373
    },
    {
        "id": "1:24407",
        "name": "Oregon Av & 22nd St",
        "lat": 39.918581,
        "lon": -75.184205
    },
    {
        "id": "1:24408",
        "name": "Oregon Av & 23rd St - FS",
        "lat": 39.918863,
        "lon": -75.186468
    },
    {
        "id": "1:1099",
        "name": "Southampton Rd & Roosevelt Blvd",
        "lat": 40.114722,
        "lon": -74.988641
    },
    {
        "id": "1:1096",
        "name": "Southhampton Rd & Roosevelt Blvd - FS",
        "lat": 40.114695,
        "lon": -74.988392
    },
    {
        "id": "1:1097",
        "name": "County Line Rd & Bustleton Av - FS",
        "lat": 40.134851,
        "lon": -75.009792
    },
    {
        "id": "1:1094",
        "name": "Morrell Av & Frankford Av - FS",
        "lat": 40.063667,
        "lon": -74.985667
    },
    {
        "id": "1:1095",
        "name": "Knights Rd & Franklin Mill Blvd",
        "lat": 40.091416,
        "lon": -74.965724
    },
    {
        "id": "1:25734",
        "name": "Edgmont Av & Garrison Rd",
        "lat": 39.868487,
        "lon": -75.380635
    },
    {
        "id": "1:1092",
        "name": "State Rd & Linden  Av",
        "lat": 40.045892,
        "lon": -74.994539
    },
    {
        "id": "1:25735",
        "name": "Edgmont Av & Forrestview Rd - FS",
        "lat": 39.868102,
        "lon": -75.379716
    },
    {
        "id": "1:1093",
        "name": "Grant Av & James St - FS",
        "lat": 40.054396,
        "lon": -74.983809
    },
    {
        "id": "1:1078",
        "name": "Dresher Rd & Business Ctr Dr - MBFS",
        "lat": 40.167604,
        "lon": -75.14541
    },
    {
        "id": "1:1079",
        "name": "Dresher Rd & Gibraltar Rd - MBNS",
        "lat": 40.17358,
        "lon": -75.139676
    },
    {
        "id": "1:12410",
        "name": "Ridge Pk & Manor Rd",
        "lat": 40.07652,
        "lon": -75.247647
    },
    {
        "id": "1:12415",
        "name": "Ridge Av & Northwestern Av - MBNS",
        "lat": 40.072853,
        "lon": -75.242653
    },
    {
        "id": "1:12413",
        "name": "Ridge Pk & Mulberry Ln",
        "lat": 40.08759,
        "lon": -75.262195
    },
    {
        "id": "1:1085",
        "name": "Moreland Rd & Fitzwatertown Rd",
        "lat": 40.148805,
        "lon": -75.129795
    },
    {
        "id": "1:25720",
        "name": "Bridgewater Rd & Powell Rd - FS",
        "lat": 39.858485,
        "lon": -75.389653
    },
    {
        "id": "1:1086",
        "name": "Fitzwatertown Rd & Jenkintown Rd - MBNS",
        "lat": 40.125917,
        "lon": -75.164433
    },
    {
        "id": "1:25721",
        "name": "6th St & Patton Av",
        "lat": 39.857235,
        "lon": -75.386976
    },
    {
        "id": "1:25723",
        "name": "6th St & Main St",
        "lat": 39.855556,
        "lon": -75.382567
    },
    {
        "id": "1:1081",
        "name": "Frankford Av & Unruh Av",
        "lat": 40.031871,
        "lon": -75.05292
    },
    {
        "id": "1:12408",
        "name": "Ridge Av & Manatawna Av",
        "lat": 40.068414,
        "lon": -75.240417
    },
    {
        "id": "1:12401",
        "name": "Ridge Pk & Birch Dr - MBNS",
        "lat": 40.09097,
        "lon": -75.27383
    },
    {
        "id": "1:25715",
        "name": "Brookhaven Rd & Woodland Av - MBFS",
        "lat": 39.869659,
        "lon": -75.391251
    },
    {
        "id": "1:25717",
        "name": "Brookhaven Rd & Gray St",
        "lat": 39.867759,
        "lon": -75.39275
    },
    {
        "id": "1:25718",
        "name": "Brookhaven Rd & Bridgewater Rd - MBFS",
        "lat": 39.86261,
        "lon": -75.394344
    },
    {
        "id": "1:25719",
        "name": "Bridgewater Rd & Albert Rd",
        "lat": 39.859959,
        "lon": -75.392718
    },
    {
        "id": "1:25711",
        "name": "Market St & 63rd St - FS",
        "lat": 39.962911,
        "lon": -75.247274
    },
    {
        "id": "1:25714",
        "name": "Brookhaven Rd & Mt Vernon Av",
        "lat": 39.870623,
        "lon": -75.39
    },
    {
        "id": "1:25704",
        "name": "Walnut St & 32nd St - FS",
        "lat": 39.952356,
        "lon": -75.18798
    },
    {
        "id": "1:25706",
        "name": "Market St & Sellers Av",
        "lat": 39.962732,
        "lon": -75.252566
    },
    {
        "id": "1:25707",
        "name": "Market St & Glencoe Rd",
        "lat": 39.962598,
        "lon": -75.252732
    },
    {
        "id": "1:25708",
        "name": "Chestnut St & 63rd St - FS",
        "lat": 39.961108,
        "lon": -75.246806
    },
    {
        "id": "1:25701",
        "name": "Edgmont Av & Maple Av",
        "lat": 39.873747,
        "lon": -75.391095
    },
    {
        "id": "1:25702",
        "name": "Edgmont Av & Ridge Blvd",
        "lat": 39.873086,
        "lon": -75.389385
    },
    {
        "id": "1:23051",
        "name": "29th St & Hunting Park Av - FS",
        "lat": 40.005817,
        "lon": -75.176742
    },
    {
        "id": "1:23050",
        "name": "Hunting Park Av & Clarrisa St",
        "lat": 40.014771,
        "lon": -75.156547
    },
    {
        "id": "1:23052",
        "name": "Allegheny Av & Ridge Av",
        "lat": 40.006115,
        "lon": -75.187685
    },
    {
        "id": "1:23055",
        "name": "Southampton Rd & McNulty Rd - 2 MBFS",
        "lat": 40.108102,
        "lon": -74.9868
    },
    {
        "id": "1:23054",
        "name": "Townsend Rd & Old Townsend Rd",
        "lat": 40.105392,
        "lon": -74.980047
    },
    {
        "id": "1:23056",
        "name": "Roosevelt Blvd & Crown Way - FS",
        "lat": 40.112095,
        "lon": -74.990338
    },
    {
        "id": "1:23059",
        "name": "Old Lincoln Hwy & Interplex Dr - MBFS",
        "lat": 40.126826,
        "lon": -74.976184
    },
    {
        "id": "1:23058",
        "name": "Southampton Rd & McNulty Rd",
        "lat": 40.109736,
        "lon": -74.986873
    },
    {
        "id": "1:23040",
        "name": "Bustleton Av & Levick St - FS",
        "lat": 40.036098,
        "lon": -75.069958
    },
    {
        "id": "1:24370",
        "name": "Lindley Av & Ogontz Av",
        "lat": 40.031354,
        "lon": -75.152571
    },
    {
        "id": "1:24371",
        "name": "Lindley Av & 17th St",
        "lat": 40.031209,
        "lon": -75.151472
    },
    {
        "id": "1:23042",
        "name": "Bustleton Av & Longshore Av",
        "lat": 40.041589,
        "lon": -75.064349
    },
    {
        "id": "1:23041",
        "name": "Bustleton Av & Hellerman St",
        "lat": 40.036748,
        "lon": -75.069292
    },
    {
        "id": "1:23044",
        "name": "Bustleton Av & Princeton St",
        "lat": 40.044036,
        "lon": -75.061925
    },
    {
        "id": "1:23043",
        "name": "Bustleton Av & Tyson Av - FS",
        "lat": 40.042995,
        "lon": -75.062959
    },
    {
        "id": "1:12398",
        "name": "Ridge Pk & Joshua Rd - FS",
        "lat": 40.088567,
        "lon": -75.26573
    },
    {
        "id": "1:12397",
        "name": "Ridge Av & Ivins Rd",
        "lat": 40.060888,
        "lon": -75.238935
    },
    {
        "id": "1:12391",
        "name": "Ridge Pk & Ash Ln - MBNS",
        "lat": 40.091937,
        "lon": -75.276928
    },
    {
        "id": "1:12396",
        "name": "Ridge Pike & Butler Pike - MBFS",
        "lat": 40.093615,
        "lon": -75.283775
    },
    {
        "id": "1:23046",
        "name": "Roosevelt Blvd & Rising Sun Av",
        "lat": 40.026248,
        "lon": -75.121548
    },
    {
        "id": "1:23045",
        "name": "Bustleton Av & Saint Vincent St - FS",
        "lat": 40.045567,
        "lon": -75.060581
    },
    {
        "id": "1:23048",
        "name": "Roosevelt Blvd & Broad St - FS",
        "lat": 40.017951,
        "lon": -75.149585
    },
    {
        "id": "1:23047",
        "name": "Roosevelt Blvd & Front St",
        "lat": 40.026002,
        "lon": -75.123204
    },
    {
        "id": "1:23049",
        "name": "Hunting Park Av & Germantown Av",
        "lat": 40.016032,
        "lon": -75.153741
    },
    {
        "id": "1:24360",
        "name": "Oregon Av & 11th St",
        "lat": 39.91626,
        "lon": -75.165975
    },
    {
        "id": "1:25691",
        "name": "Middletown Rd & Wyncroft Dr - FS",
        "lat": 39.898543,
        "lon": -75.408215
    },
    {
        "id": "1:25692",
        "name": "Middletown Rd & Copes Ln",
        "lat": 39.894223,
        "lon": -75.405113
    },
    {
        "id": "1:24361",
        "name": "Oregon Av & 12th St",
        "lat": 39.916451,
        "lon": -75.167532
    },
    {
        "id": "1:24362",
        "name": "Oregon Av & 13th St",
        "lat": 39.916659,
        "lon": -75.16909
    },
    {
        "id": "1:25693",
        "name": "Middletown Rd & Old Middletown Rd",
        "lat": 39.888806,
        "lon": -75.403263
    },
    {
        "id": "1:23033",
        "name": "Caroline Rd & Charter Rd - MBNS",
        "lat": 40.097683,
        "lon": -75.00401
    },
    {
        "id": "1:25694",
        "name": "Middletown Rd & Knowlton Rd",
        "lat": 39.887494,
        "lon": -75.402732
    },
    {
        "id": "1:24363",
        "name": "Oregon Av & 15th St",
        "lat": 39.917131,
        "lon": -75.172865
    },
    {
        "id": "1:24364",
        "name": "Oregon Av & 16th St",
        "lat": 39.917339,
        "lon": -75.174446
    },
    {
        "id": "1:23032",
        "name": "Caroline Rd & Charter Rd - FS",
        "lat": 40.097353,
        "lon": -75.004273
    },
    {
        "id": "1:11055",
        "name": "North Warner Rd & North Gulph Rd - FS",
        "lat": 40.084869,
        "lon": -75.401001
    },
    {
        "id": "1:24365",
        "name": "Oregon Av & 17th St",
        "lat": 39.91753,
        "lon": -75.176015
    },
    {
        "id": "1:23035",
        "name": "Charter Rd & Norcom Rd",
        "lat": 40.094288,
        "lon": -75.003108
    },
    {
        "id": "1:24366",
        "name": "Oregon Av & 18th St",
        "lat": 39.917738,
        "lon": -75.177596
    },
    {
        "id": "1:24367",
        "name": "Oregon Av & 19th St - FS",
        "lat": 39.917983,
        "lon": -75.179519
    },
    {
        "id": "1:25699",
        "name": "Edgmont Av & Cobourn Blvd - FS",
        "lat": 39.875077,
        "lon": -75.393123
    },
    {
        "id": "1:24368",
        "name": "Lindley Av & Belfield Av - FS",
        "lat": 40.031447,
        "lon": -75.154485
    },
    {
        "id": "1:23036",
        "name": "Red Lion Rd & Norcom Rd - FS",
        "lat": 40.090939,
        "lon": -75.010594
    },
    {
        "id": "1:24369",
        "name": "Oregon Av & 21st St",
        "lat": 39.918382,
        "lon": -75.182645
    },
    {
        "id": "1:23039",
        "name": "Bustleton Av & Robbins Av",
        "lat": 40.034121,
        "lon": -75.071434
    },
    {
        "id": "1:25680",
        "name": "Middletown Rd & Old Baltimore Pk - MBNS",
        "lat": 39.914181,
        "lon": -75.423708
    },
    {
        "id": "1:24350",
        "name": "Packer Av & Front St - MBNS",
        "lat": 39.907537,
        "lon": -75.152128
    },
    {
        "id": "1:24351",
        "name": "Oregon Av & 2nd St",
        "lat": 39.91439,
        "lon": -75.151417
    },
    {
        "id": "1:24352",
        "name": "Oregon Av & 3rd St",
        "lat": 39.914581,
        "lon": -75.153045
    },
    {
        "id": "1:24353",
        "name": "Oregon Av & 4th St",
        "lat": 39.914817,
        "lon": -75.154933
    },
    {
        "id": "1:12370",
        "name": "Ridge Av & Bells Mill Rd - FS",
        "lat": 40.070914,
        "lon": -75.241274
    },
    {
        "id": "1:12374",
        "name": "Ridge Pk & Butler Pk - 2 MBNS",
        "lat": 40.094387,
        "lon": -75.288293
    },
    {
        "id": "1:12372",
        "name": "Ridge Pk & Birch Dr",
        "lat": 40.08992,
        "lon": -75.269809
    },
    {
        "id": "1:24354",
        "name": "Belfield Av & Penn St - MBNS",
        "lat": 40.037032,
        "lon": -75.165767
    },
    {
        "id": "1:24355",
        "name": "Belfield Av & Penn St",
        "lat": 40.036797,
        "lon": -75.164396
    },
    {
        "id": "1:23026",
        "name": "Haldeman Av & Sanford St",
        "lat": 40.098431,
        "lon": -75.014313
    },
    {
        "id": "1:25687",
        "name": "Middletown Rd & Williamson Sch Dr",
        "lat": 39.909799,
        "lon": -75.419896
    },
    {
        "id": "1:24356",
        "name": "Belfield Av & Armstrong St",
        "lat": 40.03678,
        "lon": -75.160589
    },
    {
        "id": "1:24357",
        "name": "Belfield Av & Wister St",
        "lat": 40.036642,
        "lon": -75.158521
    },
    {
        "id": "1:25688",
        "name": "Middletown Rd & Glen Riddle Rd",
        "lat": 39.904729,
        "lon": -75.41507
    },
    {
        "id": "1:23025",
        "name": "Haldeman Av & Red Lion Rd - FS",
        "lat": 40.09722,
        "lon": -75.017822
    },
    {
        "id": "1:24358",
        "name": "Belfield Av & 20th St",
        "lat": 40.036279,
        "lon": -75.155815
    },
    {
        "id": "1:23027",
        "name": "Haldeman Av & Tomlinson Rd",
        "lat": 40.099077,
        "lon": -75.012463
    },
    {
        "id": "1:24359",
        "name": "Oregon Av & 9th St",
        "lat": 39.915852,
        "lon": -75.162813
    },
    {
        "id": "1:25670",
        "name": "Middletown Rd & Little Ln",
        "lat": 39.885307,
        "lon": -75.401377
    },
    {
        "id": "1:25671",
        "name": "Middletown Rd & Knowlton Rd - FS",
        "lat": 39.887636,
        "lon": -75.402555
    },
    {
        "id": "1:24340",
        "name": "School House Ln & Morris St",
        "lat": 40.027813,
        "lon": -75.179301
    },
    {
        "id": "1:23011",
        "name": "Cheltenham Av & Large St",
        "lat": 40.0306,
        "lon": -75.082729
    },
    {
        "id": "1:24341",
        "name": "School House Ln & Pulaski Av",
        "lat": 40.028962,
        "lon": -75.17815
    },
    {
        "id": "1:24342",
        "name": "Pulaski Av & Chelten Av",
        "lat": 40.030385,
        "lon": -75.180119
    },
    {
        "id": "1:23010",
        "name": "Market St & 62nd St - FS",
        "lat": 39.96264,
        "lon": -75.244948
    },
    {
        "id": "1:12366",
        "name": "Ridge Av & Caledonia St - MBFS",
        "lat": 40.066735,
        "lon": -75.24009
    },
    {
        "id": "1:25674",
        "name": "Middletown Rd & Wyncroft Dr - FS",
        "lat": 39.8989,
        "lon": -75.408333
    },
    {
        "id": "1:24343",
        "name": "Baynton St & Armat St",
        "lat": 40.038086,
        "lon": -75.170705
    },
    {
        "id": "1:23013",
        "name": "Cheltenham Av & Oakland St",
        "lat": 40.028573,
        "lon": -75.079169
    },
    {
        "id": "1:23012",
        "name": "Cheltenham Av & Horrocks St",
        "lat": 40.029587,
        "lon": -75.080937
    },
    {
        "id": "1:24344",
        "name": "Baynton St & Church Ln",
        "lat": 40.037109,
        "lon": -75.16864
    },
    {
        "id": "1:23015",
        "name": "63rd St & Arch St",
        "lat": 39.964186,
        "lon": -75.246373
    },
    {
        "id": "1:24345",
        "name": "8th St & Passyunk Av",
        "lat": 39.935215,
        "lon": -75.157133
    },
    {
        "id": "1:23014",
        "name": "Cheltenham Av & Saul St",
        "lat": 40.027892,
        "lon": -75.077967
    },
    {
        "id": "1:24347",
        "name": "Oregon Av & 5th St - FS",
        "lat": 39.914803,
        "lon": -75.156503
    },
    {
        "id": "1:25678",
        "name": "Middletown Rd & Elwyn Rd",
        "lat": 39.905773,
        "lon": -75.415813
    },
    {
        "id": "1:23017",
        "name": "63rd St & Vine St",
        "lat": 39.967238,
        "lon": -75.245739
    },
    {
        "id": "1:23016",
        "name": "63rd St & Race St",
        "lat": 39.965712,
        "lon": -75.246062
    },
    {
        "id": "1:24348",
        "name": "Front St & Packer Av - FS",
        "lat": 39.907317,
        "lon": -75.151396
    },
    {
        "id": "1:24349",
        "name": "Packer Av & 3rd St",
        "lat": 39.907755,
        "lon": -75.153815
    },
    {
        "id": "1:23018",
        "name": "Sandmeyer Ln & 10060",
        "lat": 40.10977,
        "lon": -75.034864
    },
    {
        "id": "1:26993",
        "name": "Devon Park Dr & 446-436",
        "lat": 40.072082,
        "lon": -75.418666
    },
    {
        "id": "1:26992",
        "name": "Devon Park Dr & 300",
        "lat": 40.07085,
        "lon": -75.421576
    },
    {
        "id": "1:26991",
        "name": "Devon Park Dr & West Valley Rd - MBFS",
        "lat": 40.070056,
        "lon": -75.423445
    },
    {
        "id": "1:23000",
        "name": "Oxford Av & Langdon St - FS",
        "lat": 40.037632,
        "lon": -75.088607
    },
    {
        "id": "1:24330",
        "name": "9th St & Lombard St",
        "lat": 39.943523,
        "lon": -75.156783
    },
    {
        "id": "1:24331",
        "name": "9th St & Pine St",
        "lat": 39.944415,
        "lon": -75.156591
    },
    {
        "id": "1:26990",
        "name": "West Valley Rd & USPS Facility",
        "lat": 40.072341,
        "lon": -75.426391
    },
    {
        "id": "1:23009",
        "name": "Market St & 61st St",
        "lat": 39.962351,
        "lon": -75.242587
    },
    {
        "id": "1:25663",
        "name": "Edgmont Av & Ridge Blvd",
        "lat": 39.87313,
        "lon": -75.389149
    },
    {
        "id": "1:24332",
        "name": "9th St & Spruce St",
        "lat": 39.94586,
        "lon": -75.15629
    },
    {
        "id": "1:23002",
        "name": "Oxford Av & Frontenac St",
        "lat": 40.034843,
        "lon": -75.087237
    },
    {
        "id": "1:23001",
        "name": "Market St & 51st St - FS",
        "lat": 39.959929,
        "lon": -75.223106
    },
    {
        "id": "1:24333",
        "name": "9th St & Locust St",
        "lat": 39.947091,
        "lon": -75.156002
    },
    {
        "id": "1:25664",
        "name": "Edgmont Av & Maple Av",
        "lat": 39.873782,
        "lon": -75.3908
    },
    {
        "id": "1:23004",
        "name": "Market St & 54th St - FS",
        "lat": 39.960634,
        "lon": -75.228809
    },
    {
        "id": "1:24334",
        "name": "9th St & Walnut St",
        "lat": 39.948224,
        "lon": -75.155761
    },
    {
        "id": "1:26994",
        "name": "Devon Park Dr 456 & Old Eagle School Rd - MBNS",
        "lat": 40.073938,
        "lon": -75.414301
    },
    {
        "id": "1:25666",
        "name": "Edgmont Av & Cambridge Rd - MBFS",
        "lat": 39.875854,
        "lon": -75.393807
    },
    {
        "id": "1:24335",
        "name": "9th St & Arch St",
        "lat": 39.953273,
        "lon": -75.154656
    },
    {
        "id": "1:23003",
        "name": "Market St & 53rd St - FS",
        "lat": 39.960408,
        "lon": -75.227049
    },
    {
        "id": "1:24336",
        "name": "Franklin St & Race St - FS",
        "lat": 39.955159,
        "lon": -75.151542
    },
    {
        "id": "1:25667",
        "name": "Edgmont Av & Whiteley Rd - MBNS",
        "lat": 39.876889,
        "lon": -75.395057
    },
    {
        "id": "1:23006",
        "name": "Oxford Av & Loretto Av",
        "lat": 40.033562,
        "lon": -75.08547
    },
    {
        "id": "1:23005",
        "name": "Market St & 55th St - FS",
        "lat": 39.960896,
        "lon": -75.230993
    },
    {
        "id": "1:24337",
        "name": "7th St & Wallace St",
        "lat": 39.963044,
        "lon": -75.149457
    },
    {
        "id": "1:26999",
        "name": "Bethlehem Pk & Yeakel Av",
        "lat": 40.093514,
        "lon": -75.213716
    },
    {
        "id": "1:23008",
        "name": "Cheltenham Av & Roosevelt Bvld - FS",
        "lat": 40.031264,
        "lon": -75.083979
    },
    {
        "id": "1:25669",
        "name": "Middletown Rd & High Meadow Dr",
        "lat": 39.881772,
        "lon": -75.399207
    },
    {
        "id": "1:24339",
        "name": "8th St & Noble St",
        "lat": 39.959693,
        "lon": -75.151938
    },
    {
        "id": "1:23007",
        "name": "Oxford Av & Roosevelt Blvd",
        "lat": 40.0324,
        "lon": -75.084884
    },
    {
        "id": "1:26982",
        "name": "King Rd & Grubb Rd",
        "lat": 40.039975,
        "lon": -75.502039
    },
    {
        "id": "1:26981",
        "name": "King St & Arlington Av",
        "lat": 40.038894,
        "lon": -75.505017
    },
    {
        "id": "1:26980",
        "name": "King St & Ruthland Av",
        "lat": 40.037427,
        "lon": -75.509012
    },
    {
        "id": "1:25650",
        "name": "Edgmont Av & Elkington Blvd",
        "lat": 39.865244,
        "lon": -75.372806
    },
    {
        "id": "1:24320",
        "name": "9th St & Dickinson St",
        "lat": 39.930535,
        "lon": -75.15963
    },
    {
        "id": "1:12345",
        "name": "Ridge Av & Walnut Ln - FS",
        "lat": 40.026763,
        "lon": -75.209425
    },
    {
        "id": "1:12346",
        "name": "Ridge Av & Wigard Av",
        "lat": 40.048744,
        "lon": -75.235313
    },
    {
        "id": "1:24329",
        "name": "9th St & South St",
        "lat": 39.942515,
        "lon": -75.157011
    },
    {
        "id": "1:24321",
        "name": "9th St & Reed St",
        "lat": 39.931739,
        "lon": -75.159354
    },
    {
        "id": "1:25652",
        "name": "Edgmont Av & Avon Rd",
        "lat": 39.866235,
        "lon": -75.375046
    },
    {
        "id": "1:26986",
        "name": "Bear Hill Rd & Daylesford Blvd",
        "lat": 40.056438,
        "lon": -75.472336
    },
    {
        "id": "1:24322",
        "name": "9th St & Wharton St",
        "lat": 39.932926,
        "lon": -75.15909
    },
    {
        "id": "1:26985",
        "name": "Bear Hill Rd & Central Av",
        "lat": 40.04537,
        "lon": -75.475274
    },
    {
        "id": "1:25654",
        "name": "Edgmont Av & Roland Rd",
        "lat": 39.866977,
        "lon": -75.376697
    },
    {
        "id": "1:24323",
        "name": "9th St & Federal St",
        "lat": 39.934165,
        "lon": -75.158802
    },
    {
        "id": "1:26984",
        "name": "King Rd & Lancaster Av",
        "lat": 40.041425,
        "lon": -75.495431
    },
    {
        "id": "1:26983",
        "name": "King Rd & Lloyd Av",
        "lat": 40.040861,
        "lon": -75.498906
    },
    {
        "id": "1:24324",
        "name": "9th St & Ellsworth St",
        "lat": 39.93512,
        "lon": -75.158609
    },
    {
        "id": "1:24325",
        "name": "9th St & Carpenter St",
        "lat": 39.937493,
        "lon": -75.158093
    },
    {
        "id": "1:26989",
        "name": "Swedesford Rd & Valley Forge Rd - FS",
        "lat": 40.071047,
        "lon": -75.436208
    },
    {
        "id": "1:25657",
        "name": "Edgmont Av & Forrestview Rd",
        "lat": 39.868218,
        "lon": -75.379657
    },
    {
        "id": "1:24326",
        "name": "9th St & Catherine St",
        "lat": 39.939687,
        "lon": -75.157612
    },
    {
        "id": "1:26988",
        "name": "Swedesford Rd & Westlakes Blvd - FS",
        "lat": 40.061135,
        "lon": -75.466212
    },
    {
        "id": "1:24327",
        "name": "9th St & Fitzwater St",
        "lat": 39.940695,
        "lon": -75.157396
    },
    {
        "id": "1:24328",
        "name": "9th St & Bainbridge St",
        "lat": 39.941659,
        "lon": -75.157191
    },
    {
        "id": "1:26970",
        "name": "King Rd & Gingerwood Rd",
        "lat": 40.032179,
        "lon": -75.534554
    },
    {
        "id": "1:25640",
        "name": "Brookhaven Rd & Woodland Av - MBNS",
        "lat": 39.869383,
        "lon": -75.391262
    },
    {
        "id": "1:14995",
        "name": "Ridge Av & Osborn St - MBNS",
        "lat": 40.016322,
        "lon": -75.210297
    },
    {
        "id": "1:14996",
        "name": "Broad St & South St",
        "lat": 39.943524,
        "lon": -75.165426
    },
    {
        "id": "1:14993",
        "name": "Port Royal  Av Ridge Av - FS",
        "lat": 40.059904,
        "lon": -75.237861
    },
    {
        "id": "1:12331",
        "name": "Ridge Av & Roxborough Av",
        "lat": 40.029881,
        "lon": -75.211153
    },
    {
        "id": "1:14999",
        "name": "Ridge Pk & Crescent Av",
        "lat": 40.083527,
        "lon": -75.254384
    },
    {
        "id": "1:12336",
        "name": "Ridge Av & Seville St",
        "lat": 40.024574,
        "lon": -75.208084
    },
    {
        "id": "1:14997",
        "name": "Henry Av & Cheswick Rd - MBNS",
        "lat": 40.056085,
        "lon": -75.232491
    },
    {
        "id": "1:12335",
        "name": "Ridge Av & Seville St",
        "lat": 40.024672,
        "lon": -75.208285
    },
    {
        "id": "1:24318",
        "name": "9th St & Morris St",
        "lat": 39.9281,
        "lon": -75.160159
    },
    {
        "id": "1:24319",
        "name": "9th St & Tasker St",
        "lat": 39.929313,
        "lon": -75.159883
    },
    {
        "id": "1:14991",
        "name": "Ridge Av & Spring  Ln",
        "lat": 40.0707,
        "lon": -75.241298
    },
    {
        "id": "1:14990",
        "name": "Ridge Pk & Barren Hill Rd - MBFS",
        "lat": 40.07745,
        "lon": -75.248887
    },
    {
        "id": "1:24310",
        "name": "9th St & Porter St",
        "lat": 39.918225,
        "lon": -75.162379
    },
    {
        "id": "1:25641",
        "name": "Brookhaven Rd & Mt Vernon Av",
        "lat": 39.870391,
        "lon": -75.390059
    },
    {
        "id": "1:25642",
        "name": "Brookhaven Rd & Burk Av",
        "lat": 39.871818,
        "lon": -75.388654
    },
    {
        "id": "1:24311",
        "name": "9th St & Ritner St",
        "lat": 39.919518,
        "lon": -75.162056
    },
    {
        "id": "1:26974",
        "name": "King St & Crest Av",
        "lat": 40.033625,
        "lon": -75.522284
    },
    {
        "id": "1:24312",
        "name": "9th St & Wolf St",
        "lat": 39.920758,
        "lon": -75.16178
    },
    {
        "id": "1:25643",
        "name": "22nd St & Wetherill St",
        "lat": 39.860548,
        "lon": -75.370345
    },
    {
        "id": "1:24313",
        "name": "9th St & Jackson St",
        "lat": 39.921989,
        "lon": -75.161527
    },
    {
        "id": "1:25644",
        "name": "22nd St & Crozer St",
        "lat": 39.861842,
        "lon": -75.369671
    },
    {
        "id": "1:24314",
        "name": "9th St & Snyder Av",
        "lat": 39.923193,
        "lon": -75.161275
    },
    {
        "id": "1:26978",
        "name": "King St & Bridge St",
        "lat": 40.036666,
        "lon": -75.512759
    },
    {
        "id": "1:24315",
        "name": "9th St & McKean St",
        "lat": 39.924451,
        "lon": -75.160987
    },
    {
        "id": "1:24316",
        "name": "9th St & Mifflin St",
        "lat": 39.925646,
        "lon": -75.160723
    },
    {
        "id": "1:24317",
        "name": "9th St & Moore St",
        "lat": 39.926886,
        "lon": -75.160435
    },
    {
        "id": "1:25648",
        "name": "Edgmont Av & 24th St",
        "lat": 39.864511,
        "lon": -75.370967
    },
    {
        "id": "1:26976",
        "name": "King St & Malvern Crossing Apts",
        "lat": 40.034861,
        "lon": -75.517202
    },
    {
        "id": "1:23093",
        "name": "Pine St & Flowers Av",
        "lat": 40.174627,
        "lon": -74.916569
    },
    {
        "id": "1:23092",
        "name": "Bellevue Av & Pine St",
        "lat": 40.167357,
        "lon": -74.915448
    },
    {
        "id": "1:23095",
        "name": "Maple Av & Beechwood Cir",
        "lat": 40.177761,
        "lon": -74.91253
    },
    {
        "id": "1:23094",
        "name": "Pine St & Maple Av",
        "lat": 40.176344,
        "lon": -74.917255
    },
    {
        "id": "1:23097",
        "name": "Maple Av & S Flowers Mill - FS",
        "lat": 40.177832,
        "lon": -74.903645
    },
    {
        "id": "1:23096",
        "name": "Maple Av & Flowers Mill Rd",
        "lat": 40.17877,
        "lon": -74.908258
    },
    {
        "id": "1:23099",
        "name": "Bustleton Av & Shelmire Av",
        "lat": 40.050868,
        "lon": -75.057124
    },
    {
        "id": "1:23091",
        "name": "Pine St & Woods Dr - FS",
        "lat": 40.170485,
        "lon": -74.914372
    },
    {
        "id": "1:23090",
        "name": "Bellevue Av & Park Av",
        "lat": 40.163483,
        "lon": -74.913238
    },
    {
        "id": "1:23084",
        "name": "Old Lincoln Hwy & Glen Av",
        "lat": 40.156364,
        "lon": -74.920809
    },
    {
        "id": "1:23083",
        "name": "Old Lincoln Hwy & Neshaminy St",
        "lat": 40.155759,
        "lon": -74.923466
    },
    {
        "id": "1:23085",
        "name": "Old Lincoln Hwy & Hulmeville Av",
        "lat": 40.157686,
        "lon": -74.916595
    },
    {
        "id": "1:23087",
        "name": "Old Lincoln Hwy & Bellevue Av",
        "lat": 40.158775,
        "lon": -74.912218
    },
    {
        "id": "1:23080",
        "name": "Rockhill Rd & Neshaminy Rd - MBFS",
        "lat": 40.136645,
        "lon": -74.956965
    },
    {
        "id": "1:23089",
        "name": "Bellvue Av & Comly Av - MBNS",
        "lat": 40.160891,
        "lon": -74.912332
    },
    {
        "id": "1:23071",
        "name": "Rockhill Rd & Neshaminy Blvd - MBNS",
        "lat": 40.136575,
        "lon": -74.95725
    },
    {
        "id": "1:23070",
        "name": "Rockhill Rd & Horizon Corp Ctr - FS",
        "lat": 40.139625,
        "lon": -74.961326
    },
    {
        "id": "1:23075",
        "name": "Somerton Rd & Trevose Rd - 2",
        "lat": 40.134342,
        "lon": -74.991468
    },
    {
        "id": "1:23074",
        "name": "Somerton Rd & Metropolitan Dr",
        "lat": 40.131136,
        "lon": -74.985947
    },
    {
        "id": "1:23077",
        "name": "Bucks County Technology Park - 2",
        "lat": 40.136586,
        "lon": -74.9848
    },
    {
        "id": "1:23076",
        "name": "Bucks County Technology Park - 1",
        "lat": 40.135649,
        "lon": -74.987588
    },
    {
        "id": "1:3740",
        "name": "Allegheny Av & Front St",
        "lat": 39.998598,
        "lon": -75.129111
    },
    {
        "id": "1:3743",
        "name": "Allegheny Av & Gaul St",
        "lat": 39.987061,
        "lon": -75.104963
    },
    {
        "id": "1:3742",
        "name": "Allegheny Av & G St",
        "lat": 39.996815,
        "lon": -75.115353
    },
    {
        "id": "1:3744",
        "name": "Allegheny Av & Germantown Av",
        "lat": 40.001034,
        "lon": -75.148044
    },
    {
        "id": "1:11098",
        "name": "Ogontz Av & 65th Av",
        "lat": 40.053162,
        "lon": -75.150003
    },
    {
        "id": "1:23078",
        "name": "Street Rd & Reading Av - MBNS",
        "lat": 40.136409,
        "lon": -74.982789
    },
    {
        "id": "1:3738",
        "name": "Allegheny Av & Fox St",
        "lat": 40.003721,
        "lon": -75.168844
    },
    {
        "id": "1:23060",
        "name": "Old Lincoln Hwy & Northgate Dr",
        "lat": 40.123784,
        "lon": -74.976558
    },
    {
        "id": "1:23062",
        "name": "Old Lincoln Hwy & Somerton Rd",
        "lat": 40.128726,
        "lon": -74.975923
    },
    {
        "id": "1:3739",
        "name": "Allegheny Av & Frankford Av",
        "lat": 39.992965,
        "lon": -75.110171
    },
    {
        "id": "1:23061",
        "name": "Old Lincoln Hwy & Interplex Dr",
        "lat": 40.125532,
        "lon": -74.976346
    },
    {
        "id": "1:23064",
        "name": "Old Lincoln Hwy & Street Rd - MBFS",
        "lat": 40.133291,
        "lon": -74.974533
    },
    {
        "id": "1:23063",
        "name": "Old Lincoln Hwy & Concord Dr - FS",
        "lat": 40.13126,
        "lon": -74.975587
    },
    {
        "id": "1:23066",
        "name": "Horizon Corp Center - 1 Owl Link",
        "lat": 40.137045,
        "lon": -74.966079
    },
    {
        "id": "1:23065",
        "name": "Old Lincoln Hwy & Trailwood Rd",
        "lat": 40.135612,
        "lon": -74.971973
    },
    {
        "id": "1:23068",
        "name": "Horizon Corp Center - 3",
        "lat": 40.138701,
        "lon": -74.96254
    },
    {
        "id": "1:23067",
        "name": "Horizon Corp Center - 2",
        "lat": 40.137216,
        "lon": -74.963994
    },
    {
        "id": "1:1106",
        "name": "Frankford Av & Magee Av",
        "lat": 40.03069,
        "lon": -75.054841
    },
    {
        "id": "1:13816",
        "name": "Township Line Rd & Lansdowne Av",
        "lat": 39.967632,
        "lon": -75.29615
    },
    {
        "id": "1:1107",
        "name": "Bustleton Av & Devereux Av",
        "lat": 40.03266,
        "lon": -75.072269
    },
    {
        "id": "1:1104",
        "name": "Torresdale Av & Cottman Av",
        "lat": 40.030264,
        "lon": -75.035065
    },
    {
        "id": "1:1105",
        "name": "Tacony St & Comly St",
        "lat": 40.013923,
        "lon": -75.055933
    },
    {
        "id": "1:1102",
        "name": "Grant Av & James St - Torresdale Station",
        "lat": 40.054325,
        "lon": -74.983927
    },
    {
        "id": "1:13819",
        "name": "Township Line Rd & Lexington Av - FS",
        "lat": 39.960597,
        "lon": -75.312308
    },
    {
        "id": "1:1100",
        "name": "Knights Rd & Academy Rd - FS",
        "lat": 40.091462,
        "lon": -74.966078
    },
    {
        "id": "1:1101",
        "name": "Morrell Av & Frankford Av",
        "lat": 40.063429,
        "lon": -74.98568
    },
    {
        "id": "1:13811",
        "name": "Township Line Rd & High School Rd",
        "lat": 40.079667,
        "lon": -75.114823
    },
    {
        "id": "1:1108",
        "name": "Battersby St & Devereux Av - FS",
        "lat": 40.028262,
        "lon": -75.063826
    },
    {
        "id": "1:2439",
        "name": "North Philadelphia Station - BSL",
        "lat": 39.993944,
        "lon": -75.154629
    },
    {
        "id": "1:13810",
        "name": "Township Line Rd & Roosevelt Dr",
        "lat": 39.965673,
        "lon": -75.300831
    },
    {
        "id": "1:1109",
        "name": "Hawthorne St & Cottman Av",
        "lat": 40.041258,
        "lon": -75.049051
    },
    {
        "id": "1:2440",
        "name": "Chinatown Station - BSL",
        "lat": 39.955028,
        "lon": -75.152795
    },
    {
        "id": "1:13804",
        "name": "Township Line Rd & Edmonds Av",
        "lat": 39.962058,
        "lon": -75.309022
    },
    {
        "id": "1:13803",
        "name": "Township Line Rd & Drexel Av - FS",
        "lat": 39.959618,
        "lon": -75.314459
    },
    {
        "id": "1:13808",
        "name": "Township Line Rd & Foss Av",
        "lat": 39.962744,
        "lon": -75.307498
    },
    {
        "id": "1:13806",
        "name": "Township Line Rd & Perry St - MBNS",
        "lat": 40.071266,
        "lon": -75.100216
    },
    {
        "id": "1:2459",
        "name": "Spring Garden Station - MFL",
        "lat": 39.960533,
        "lon": -75.140337
    },
    {
        "id": "1:1128",
        "name": "Battersby St & Devereaux Av",
        "lat": 40.028307,
        "lon": -75.063992
    },
    {
        "id": "1:1129",
        "name": "Bustleton Av & Deveraux Av",
        "lat": 40.032892,
        "lon": -75.072279
    },
    {
        "id": "1:2457",
        "name": "8th St Station - MFL",
        "lat": 39.951102,
        "lon": -75.153589
    },
    {
        "id": "1:2458",
        "name": "5th St Independence Hall Station - MFL",
        "lat": 39.95053,
        "lon": -75.148939
    },
    {
        "id": "1:1127",
        "name": "Hawthorne St & Cottman Av - FS",
        "lat": 40.041303,
        "lon": -75.049252
    },
    {
        "id": "1:2455",
        "name": "13th St Station - MFL",
        "lat": 39.952065,
        "lon": -75.16145
    },
    {
        "id": "1:1125",
        "name": "Welsh Rd & Holme Av",
        "lat": 40.056922,
        "lon": -75.02891
    },
    {
        "id": "1:2456",
        "name": "11th St Station - MFL",
        "lat": 39.951693,
        "lon": -75.158322
    },
    {
        "id": "1:1122",
        "name": "Welsh Rd & Roosevelt Blvd",
        "lat": 40.074596,
        "lon": -75.035188
    },
    {
        "id": "1:2453",
        "name": "34th St Station - MFL",
        "lat": 39.95583,
        "lon": -75.19148
    },
    {
        "id": "1:1123",
        "name": "Holme Av & Convent Av",
        "lat": 40.056667,
        "lon": -75.019001
    },
    {
        "id": "1:2462",
        "name": "Huntingdon Station - MFL",
        "lat": 39.988803,
        "lon": -75.127274
    },
    {
        "id": "1:1131",
        "name": "G St & Hunting Park Av - FS",
        "lat": 40.011213,
        "lon": -75.112453
    },
    {
        "id": "1:2463",
        "name": "Tioga Station - MFL",
        "lat": 40.000291,
        "lon": -75.106439
    },
    {
        "id": "1:2460",
        "name": "Berks Station - MFL",
        "lat": 39.978626,
        "lon": -75.133448
    },
    {
        "id": "1:2461",
        "name": "York Dauphin Station - MFL",
        "lat": 39.985512,
        "lon": -75.131942
    },
    {
        "id": "1:2448",
        "name": "60th St Station - MFL",
        "lat": 39.961956,
        "lon": -75.240757
    },
    {
        "id": "1:1117",
        "name": "Huntingdon Pk & Holy Redeemer Hosp - FS",
        "lat": 40.10903,
        "lon": -75.080408
    },
    {
        "id": "1:2449",
        "name": "56th St Station - MFL",
        "lat": 39.960962,
        "lon": -75.232859
    },
    {
        "id": "1:1115",
        "name": "Darlington Rd & Welsh Rd",
        "lat": 40.104226,
        "lon": -75.051923
    },
    {
        "id": "1:2446",
        "name": "Millbourne Station - MFL",
        "lat": 39.96432,
        "lon": -75.252243
    },
    {
        "id": "1:2447",
        "name": "63rd St Station - MFL",
        "lat": 39.962714,
        "lon": -75.246767
    },
    {
        "id": "1:1116",
        "name": "Huntingdon Pk & Bethayres Station",
        "lat": 40.118009,
        "lon": -75.067546
    },
    {
        "id": "1:1113",
        "name": "Crispin St & Willits Rd",
        "lat": 40.054513,
        "lon": -75.010156
    },
    {
        "id": "1:1114",
        "name": "Banes St & Welsh Rd",
        "lat": 40.085382,
        "lon": -75.039375
    },
    {
        "id": "1:1111",
        "name": "Welsh Rd & Holme Av",
        "lat": 40.056099,
        "lon": -75.028466
    },
    {
        "id": "1:1112",
        "name": "Holme Av & Pennypack St",
        "lat": 40.056346,
        "lon": -75.019346
    },
    {
        "id": "1:2451",
        "name": "46th St Station - MFL",
        "lat": 39.958619,
        "lon": -75.214028
    },
    {
        "id": "1:1120",
        "name": "Welsh Rd & Darlington Rd",
        "lat": 40.104673,
        "lon": -75.052134
    },
    {
        "id": "1:1121",
        "name": "Welsh Rd & Banes St",
        "lat": 40.08557,
        "lon": -75.039469
    },
    {
        "id": "1:2452",
        "name": "40th St Station - MFL",
        "lat": 39.957117,
        "lon": -75.201963
    },
    {
        "id": "1:2450",
        "name": "52nd St Station - MFL",
        "lat": 39.959976,
        "lon": -75.224889
    },
    {
        "id": "1:1148",
        "name": "69th St Transportation Center South Terminal",
        "lat": 39.962079,
        "lon": -75.258284,
        "stationId": "1:31034",
        "cluster": "31034"
    },
    {
        "id": "1:1149",
        "name": "69th St & Marshall Rd",
        "lat": 39.954154,
        "lon": -75.258669
    },
    {
        "id": "1:1146",
        "name": "69th Street Blvd & Marshall Rd - FS",
        "lat": 39.95419,
        "lon": -75.258503
    },
    {
        "id": "1:1144",
        "name": "Church Ln & Chester Av - FS",
        "lat": 39.926773,
        "lon": -75.246162
    },
    {
        "id": "1:1145",
        "name": "Frankford Av & Hawthorne St",
        "lat": 40.027631,
        "lon": -75.061855
    },
    {
        "id": "1:1153",
        "name": "65th St & Woodland Av",
        "lat": 39.925667,
        "lon": -75.234549
    },
    {
        "id": "1:1154",
        "name": "65th St & Elmwood Av",
        "lat": 39.922216,
        "lon": -75.230439
    },
    {
        "id": "1:1151",
        "name": "Church Ln & Chester Av",
        "lat": 39.926586,
        "lon": -75.246292
    },
    {
        "id": "1:1152",
        "name": "68th St & Greenway Av",
        "lat": 39.923863,
        "lon": -75.239842
    },
    {
        "id": "1:1150",
        "name": "Church Ln & Baltimore Av",
        "lat": 39.941192,
        "lon": -75.256232
    },
    {
        "id": "1:1139",
        "name": "78th St & Lindbergh Blvd - FS",
        "lat": 39.903824,
        "lon": -75.243247
    },
    {
        "id": "1:1137",
        "name": "Frankford Av & Hellerman St",
        "lat": 40.029525,
        "lon": -75.056136
    },
    {
        "id": "1:1138",
        "name": "Frankford Av & Levick St",
        "lat": 40.028593,
        "lon": -75.057878
    },
    {
        "id": "1:1135",
        "name": "G St & Hunting Park Av",
        "lat": 40.011926,
        "lon": -75.112131
    },
    {
        "id": "1:1133",
        "name": "Aramingo Av & Moyer St",
        "lat": 39.975552,
        "lon": -75.120832
    },
    {
        "id": "1:2464",
        "name": "Church Station - MFL",
        "lat": 40.010901,
        "lon": -75.088651
    },
    {
        "id": "1:1142",
        "name": "65th St & Elmwood Av",
        "lat": 39.922162,
        "lon": -75.230191
    },
    {
        "id": "1:1143",
        "name": "65th St & Woodland Av",
        "lat": 39.925568,
        "lon": -75.234219
    },
    {
        "id": "1:1140",
        "name": "Elmwood Av & Island Av",
        "lat": 39.912909,
        "lon": -75.243448
    },
    {
        "id": "1:1141",
        "name": "67th St & Elmwood Av - FS",
        "lat": 39.920577,
        "lon": -75.232993
    },
    {
        "id": "1:1169",
        "name": "City Av & Bala Av",
        "lat": 40.000287,
        "lon": -75.228626
    },
    {
        "id": "1:1167",
        "name": "23rd St & Race St - FS",
        "lat": 39.957863,
        "lon": -75.177077
    },
    {
        "id": "1:1175",
        "name": "Germantown Av & Westview St",
        "lat": 40.052451,
        "lon": -75.185754
    },
    {
        "id": "1:1176",
        "name": "Germantown Av & Butler St",
        "lat": 40.011083,
        "lon": -75.151597
    },
    {
        "id": "1:1159",
        "name": "Frankford Av & Comly St",
        "lat": 40.026702,
        "lon": -75.067735
    },
    {
        "id": "1:1157",
        "name": "78th St & Lindbergh Blvd",
        "lat": 39.903735,
        "lon": -75.243342
    },
    {
        "id": "1:1158",
        "name": "Frankford Av & Battersby St",
        "lat": 40.027194,
        "lon": -75.064789
    },
    {
        "id": "1:1156",
        "name": "Passyunk Av & Island Av",
        "lat": 39.913354,
        "lon": -75.242691
    },
    {
        "id": "1:1160",
        "name": "Philadelphia Airport Terminal B",
        "lat": 39.877266,
        "lon": -75.244295,
        "stationId": "1:30615",
        "cluster": "30615"
    },
    {
        "id": "1:1188",
        "name": "Germantown Av & Erie Av",
        "lat": 40.009019,
        "lon": -75.15066
    },
    {
        "id": "1:1189",
        "name": "Germantown Av & Butler St",
        "lat": 40.010796,
        "lon": -75.151291
    },
    {
        "id": "1:24540",
        "name": "62nd St & Grays Av",
        "lat": 39.926076,
        "lon": -75.228103
    },
    {
        "id": "1:24549",
        "name": "Oregon Av & 23rd St",
        "lat": 39.918639,
        "lon": -75.186386
    },
    {
        "id": "1:23219",
        "name": "Bustleton Av & Street Rd",
        "lat": 40.151205,
        "lon": -75.002472
    },
    {
        "id": "1:1190",
        "name": "Germantown Av & Westview St - FS",
        "lat": 40.052691,
        "lon": -75.18573
    },
    {
        "id": "1:23218",
        "name": "Bustleton Av & Ruth St",
        "lat": 40.152542,
        "lon": -75.001943
    },
    {
        "id": "1:24541",
        "name": "62nd St & Elmwood Av",
        "lat": 39.924994,
        "lon": -75.226665
    },
    {
        "id": "1:23211",
        "name": "Elmwood Av & Bridgetown Pk",
        "lat": 40.159979,
        "lon": -74.989558
    },
    {
        "id": "1:23210",
        "name": "Elmwood Av & Prospect Av",
        "lat": 40.159405,
        "lon": -74.988768
    },
    {
        "id": "1:24542",
        "name": "62nd St & Buist Av",
        "lat": 39.923876,
        "lon": -75.225099
    },
    {
        "id": "1:23213",
        "name": "Bridgetown Pk & Bertha St - FS",
        "lat": 40.157679,
        "lon": -74.993019
    },
    {
        "id": "1:24543",
        "name": "62nd St & Dicks Av",
        "lat": 39.922749,
        "lon": -75.223744
    },
    {
        "id": "1:24544",
        "name": "63rd St & Eastwick Av",
        "lat": 39.919963,
        "lon": -75.222973
    },
    {
        "id": "1:23212",
        "name": "Bridgetown Pk & Henry Av",
        "lat": 40.159127,
        "lon": -74.990937
    },
    {
        "id": "1:24545",
        "name": "63rd St & Passyunk Av - 2",
        "lat": 39.917257,
        "lon": -75.216419
    },
    {
        "id": "1:23215",
        "name": "Bridgetown Pk & Revere St - FS",
        "lat": 40.155403,
        "lon": -74.998243
    },
    {
        "id": "1:23214",
        "name": "Bridgetown Pk & Helen St",
        "lat": 40.156377,
        "lon": -74.99594
    },
    {
        "id": "1:25877",
        "name": "Townsend Rd & McNulty Rd - FS",
        "lat": 40.107657,
        "lon": -74.977051
    },
    {
        "id": "1:24546",
        "name": "Passyunk Av & 61st St",
        "lat": 39.91803,
        "lon": -75.209393
    },
    {
        "id": "1:23217",
        "name": "Bridgetown Pk & Bustleton Pk - MBNS",
        "lat": 40.154207,
        "lon": -75.000891
    },
    {
        "id": "1:24547",
        "name": "Passyunk Av & 28th St - FS",
        "lat": 39.921125,
        "lon": -75.193519
    },
    {
        "id": "1:25878",
        "name": "Townsend Rd &  McNulty Rd - MBFS",
        "lat": 40.108963,
        "lon": -74.975362
    },
    {
        "id": "1:24548",
        "name": "Oregon Av & 24th St - FS",
        "lat": 39.919464,
        "lon": -75.18826
    },
    {
        "id": "1:23216",
        "name": "Bridgetown Pk & Buck Rd",
        "lat": 40.154668,
        "lon": -74.999858
    },
    {
        "id": "1:1179",
        "name": "Germantown Av & Lehigh Av",
        "lat": 39.993198,
        "lon": -75.147956
    },
    {
        "id": "1:1178",
        "name": "Germantown Av & Rising Sun Av",
        "lat": 40.003973,
        "lon": -75.149285
    },
    {
        "id": "1:13882",
        "name": "Valley Forge Rd & Geerdes Blvd",
        "lat": 40.103023,
        "lon": -75.400698
    },
    {
        "id": "1:24538",
        "name": "62nd St & Woodland Av - FS",
        "lat": 39.928008,
        "lon": -75.230576
    },
    {
        "id": "1:23208",
        "name": "Elmwood Av & Poplar St - FS",
        "lat": 40.157299,
        "lon": -74.986199
    },
    {
        "id": "1:23207",
        "name": "Elmwood Av & Meadowbrook Rd",
        "lat": 40.15614,
        "lon": -74.984158
    },
    {
        "id": "1:24539",
        "name": "62nd St & Paschall Av",
        "lat": 39.927203,
        "lon": -75.229587
    },
    {
        "id": "1:23209",
        "name": "Elmwood Av & Anna Av",
        "lat": 40.158446,
        "lon": -74.98759
    },
    {
        "id": "1:1186",
        "name": "Germantown Av & Lehigh Av",
        "lat": 39.992957,
        "lon": -75.147851
    },
    {
        "id": "1:24530",
        "name": "58th St & Willows Av",
        "lat": 39.940347,
        "lon": -75.233765
    },
    {
        "id": "1:23200",
        "name": "Brownsville Rd & Elizabeth Av",
        "lat": 40.15538,
        "lon": -74.971432
    },
    {
        "id": "1:24531",
        "name": "58th St & Florence Av",
        "lat": 39.93906,
        "lon": -75.232529
    },
    {
        "id": "1:23202",
        "name": "Brownsville Rd & Andrews Rd",
        "lat": 40.153023,
        "lon": -74.973685
    },
    {
        "id": "1:24532",
        "name": "58th St & Warrington Av",
        "lat": 39.93796,
        "lon": -75.231257
    },
    {
        "id": "1:1185",
        "name": "11th St & Girard Av",
        "lat": 39.970613,
        "lon": -75.154117
    },
    {
        "id": "1:24533",
        "name": "58th St & Springfield Av",
        "lat": 39.936789,
        "lon": -75.229855
    },
    {
        "id": "1:23201",
        "name": "Brownsville Rd & Sycamore Av - FS",
        "lat": 40.153699,
        "lon": -74.973088
    },
    {
        "id": "1:1182",
        "name": "Oregon Av & 11th St",
        "lat": 39.916073,
        "lon": -75.166353
    },
    {
        "id": "1:23204",
        "name": "Elmwood Av & 2nd St",
        "lat": 40.152538,
        "lon": -74.977868
    },
    {
        "id": "1:1183",
        "name": "11th St & Washington Av",
        "lat": 39.937036,
        "lon": -75.161436
    },
    {
        "id": "1:23203",
        "name": "Brownsville Rd & Clearview Av",
        "lat": 40.151715,
        "lon": -74.974937
    },
    {
        "id": "1:24535",
        "name": "58th St & Chester Av - FS",
        "lat": 39.935546,
        "lon": -75.228395
    },
    {
        "id": "1:1180",
        "name": "12th St & Girard Av",
        "lat": 39.971126,
        "lon": -75.155792
    },
    {
        "id": "1:23206",
        "name": "Elmwood Av & Oak Rd",
        "lat": 40.155035,
        "lon": -74.982222
    },
    {
        "id": "1:24536",
        "name": "58th St & Kingsessing Av",
        "lat": 39.934696,
        "lon": -75.227417
    },
    {
        "id": "1:25867",
        "name": "Roosevelt Blvd & Hoffnagle St - MBNS",
        "lat": 40.060296,
        "lon": -75.043439
    },
    {
        "id": "1:1181",
        "name": "12th St & Washington Av",
        "lat": 39.937513,
        "lon": -75.163099
    },
    {
        "id": "1:24537",
        "name": "58th St & Greenway Av",
        "lat": 39.933489,
        "lon": -75.226016
    },
    {
        "id": "1:23205",
        "name": "Elmwood Av & Forrest Av",
        "lat": 40.15349,
        "lon": -74.979532
    },
    {
        "id": "1:11217",
        "name": "Old York Rd & Champlost Av",
        "lat": 40.044483,
        "lon": -75.144515
    },
    {
        "id": "1:24527",
        "name": "58th St & Hoffman Av",
        "lat": 39.943861,
        "lon": -75.237983
    },
    {
        "id": "1:24528",
        "name": "58th St & Thomas Av",
        "lat": 39.942681,
        "lon": -75.236581
    },
    {
        "id": "1:24529",
        "name": "58th St & Whitby Av",
        "lat": 39.941492,
        "lon": -75.235203
    },
    {
        "id": "1:24520",
        "name": "56th St & Spruce St",
        "lat": 39.955707,
        "lon": -75.234042
    },
    {
        "id": "1:24521",
        "name": "56th St & Pine St",
        "lat": 39.954654,
        "lon": -75.234281
    },
    {
        "id": "1:24522",
        "name": "56th St & Larchwood Av",
        "lat": 39.95312,
        "lon": -75.234592
    },
    {
        "id": "1:24523",
        "name": "56th St & Cedar Av",
        "lat": 39.951576,
        "lon": -75.234904
    },
    {
        "id": "1:24524",
        "name": "56th St & Catherine St",
        "lat": 39.950095,
        "lon": -75.235227
    },
    {
        "id": "1:24525",
        "name": "56th St & Washington Av",
        "lat": 39.947044,
        "lon": -75.235849
    },
    {
        "id": "1:24526",
        "name": "58th St & Baltimore Av - FS",
        "lat": 39.945667,
        "lon": -75.240127
    },
    {
        "id": "1:24516",
        "name": "56th St & Race St",
        "lat": 39.964192,
        "lon": -75.232318
    },
    {
        "id": "1:24517",
        "name": "56th St & Arch St",
        "lat": 39.962639,
        "lon": -75.232606
    },
    {
        "id": "1:24518",
        "name": "56th St & Walnut St",
        "lat": 39.958062,
        "lon": -75.233563
    },
    {
        "id": "1:24519",
        "name": "56th St & Locust St",
        "lat": 39.956938,
        "lon": -75.233791
    },
    {
        "id": "1:24510",
        "name": "56th St & Master St",
        "lat": 39.973591,
        "lon": -75.233214
    },
    {
        "id": "1:24511",
        "name": "56th St & Thompson St",
        "lat": 39.972332,
        "lon": -75.232981
    },
    {
        "id": "1:24512",
        "name": "56th St & Girard Av",
        "lat": 39.970788,
        "lon": -75.23269
    },
    {
        "id": "1:24513",
        "name": "56th St & Wyalusing Av",
        "lat": 39.968904,
        "lon": -75.232317
    },
    {
        "id": "1:25845",
        "name": "Wynnefield Av & Monument Rd",
        "lat": 39.990834,
        "lon": -75.222155
    },
    {
        "id": "1:24514",
        "name": "56th St & Haverford Av",
        "lat": 39.967628,
        "lon": -75.232073
    },
    {
        "id": "1:24515",
        "name": "56th St & Vine St - FS",
        "lat": 39.965334,
        "lon": -75.232055
    },
    {
        "id": "1:24505",
        "name": "56th St & Lancaster Av - FS",
        "lat": 39.980054,
        "lon": -75.234177
    },
    {
        "id": "1:24506",
        "name": "56th St & Jefferson St",
        "lat": 39.97884,
        "lon": -75.234133
    },
    {
        "id": "1:24507",
        "name": "56th St & Stewart  St",
        "lat": 39.977885,
        "lon": -75.234005
    },
    {
        "id": "1:24508",
        "name": "56th St & Lansdowne Av",
        "lat": 39.976743,
        "lon": -75.233796
    },
    {
        "id": "1:24509",
        "name": "56th St & Media St",
        "lat": 39.975171,
        "lon": -75.233481
    },
    {
        "id": "1:24500",
        "name": "Malvern Av & 57th St",
        "lat": 39.987896,
        "lon": -75.237593
    },
    {
        "id": "1:25832",
        "name": "Lincoln Hwy & Highland Pk Rd - MBFS",
        "lat": 40.170939,
        "lon": -74.892538
    },
    {
        "id": "1:24501",
        "name": "57th St & Lebanon Av",
        "lat": 39.986485,
        "lon": -75.23729
    },
    {
        "id": "1:25833",
        "name": "Lincoln Hwy & Woodbourne Rd",
        "lat": 40.176894,
        "lon": -74.884651
    },
    {
        "id": "1:24502",
        "name": "57th St & Upland Way",
        "lat": 39.985066,
        "lon": -75.237176
    },
    {
        "id": "1:24503",
        "name": "Oxford St & 59th St - FS",
        "lat": 39.980383,
        "lon": -75.239149
    },
    {
        "id": "1:24504",
        "name": "Oxford St & 57th St",
        "lat": 39.980718,
        "lon": -75.23623
    },
    {
        "id": "1:25825",
        "name": "Fox St & Roberts Av - MBFS",
        "lat": 40.010981,
        "lon": -75.175105
    },
    {
        "id": "1:25826",
        "name": "Fox St & Bakers Centre - FS",
        "lat": 40.009774,
        "lon": -75.174034
    },
    {
        "id": "1:25827",
        "name": "Fox St & Roberts Av",
        "lat": 40.012108,
        "lon": -75.176153
    },
    {
        "id": "1:25828",
        "name": "Roosevelt Blvd & Godfrey Av",
        "lat": 40.027865,
        "lon": -75.091065
    },
    {
        "id": "1:25820",
        "name": "Queen Ln & McMichael St",
        "lat": 40.017275,
        "lon": -75.184905
    },
    {
        "id": "1:25821",
        "name": "Fox St & Midvale Av - detour",
        "lat": 40.019665,
        "lon": -75.184223
    },
    {
        "id": "1:25822",
        "name": "Abbottsford Av & Henry Av - FS",
        "lat": 40.011655,
        "lon": -75.18191
    },
    {
        "id": "1:25823",
        "name": "Abbottsford Av & Henry Av - MBFS",
        "lat": 40.012865,
        "lon": -75.180145
    },
    {
        "id": "1:25824",
        "name": "Abbottsford Av & Fox St",
        "lat": 40.014236,
        "lon": -75.178178
    },
    {
        "id": "1:13830",
        "name": "Township Line & Valley Glen Rd - FS",
        "lat": 40.075149,
        "lon": -75.106894
    },
    {
        "id": "1:13834",
        "name": "Township Line Rd & Myrtlwood Av",
        "lat": 39.966394,
        "lon": -75.299223
    },
    {
        "id": "1:25815",
        "name": "Windrim Av & Wayne Av - MBNS",
        "lat": 40.021669,
        "lon": -75.160079
    },
    {
        "id": "1:25816",
        "name": "Fox St & Hunting Park Av - MBFS",
        "lat": 40.009004,
        "lon": -75.173115
    },
    {
        "id": "1:25819",
        "name": "Roberts Av & Henry Av",
        "lat": 40.009724,
        "lon": -75.180286
    },
    {
        "id": "1:13828",
        "name": "Township Line Rd & State Rd",
        "lat": 39.946383,
        "lon": -75.325615
    },
    {
        "id": "1:13821",
        "name": "Township Line Rd & New 2nd St",
        "lat": 40.07688,
        "lon": -75.110293
    },
    {
        "id": "1:25809",
        "name": "Parkside Av & W Memorial Hall Dr",
        "lat": 39.976973,
        "lon": -75.211409
    },
    {
        "id": "1:25800",
        "name": "Ridge Av & 27th St",
        "lat": 39.984613,
        "lon": -75.177774
    },
    {
        "id": "1:25801",
        "name": "Ridge Av & Glenwood Av",
        "lat": 39.985257,
        "lon": -75.178658
    },
    {
        "id": "1:23170",
        "name": "Bridgetown Pk & Myrtle Av",
        "lat": 40.158486,
        "lon": -74.991545
    },
    {
        "id": "1:23172",
        "name": "Elmwood Av & Anna Av - FS",
        "lat": 40.15833,
        "lon": -74.98765
    },
    {
        "id": "1:23171",
        "name": "Bridgetown Pk & Elmwood Av",
        "lat": 40.159775,
        "lon": -74.989832
    },
    {
        "id": "1:23174",
        "name": "Elmwood Av & Meadowbrook Rd",
        "lat": 40.156096,
        "lon": -74.9843
    },
    {
        "id": "1:23173",
        "name": "Elmwood Av & Poplar St",
        "lat": 40.157335,
        "lon": -74.986448
    },
    {
        "id": "1:23176",
        "name": "Elmwood Av & Forest Av",
        "lat": 40.153491,
        "lon": -74.979793
    },
    {
        "id": "1:23175",
        "name": "Elmwood Av & Oak Rd",
        "lat": 40.155036,
        "lon": -74.982459
    },
    {
        "id": "1:21",
        "name": "Roosevelt Blvd & Solly Av - FS",
        "lat": 40.058873,
        "lon": -75.045067
    },
    {
        "id": "1:12",
        "name": "Decatur Rd & Drummond Rd - MBNS",
        "lat": 40.08669,
        "lon": -74.999663
    },
    {
        "id": "1:11",
        "name": "Comly Rd & Roosevelt Blvd - MBFS",
        "lat": 40.104027,
        "lon": -75.000884
    },
    {
        "id": "1:14",
        "name": "Townsend Rd & McNulty Rd - MBNS 2",
        "lat": 40.107897,
        "lon": -74.976955
    },
    {
        "id": "1:16",
        "name": "Caroline Rd & Comly Rd - MBFS",
        "lat": 40.098926,
        "lon": -75.002204
    },
    {
        "id": "1:18",
        "name": "Roosevelt Blvd & Byberry Rd - FS",
        "lat": 40.106558,
        "lon": -74.999579
    },
    {
        "id": "1:17",
        "name": "Comly Rd & Caroline Rd",
        "lat": 40.10168,
        "lon": -74.99833
    },
    {
        "id": "1:23178",
        "name": "Brownsville Rd & Magnolia Av",
        "lat": 40.152951,
        "lon": -74.973579
    },
    {
        "id": "1:19",
        "name": "Roosevelt Blvd & Comly Rd",
        "lat": 40.105172,
        "lon": -75.001575
    },
    {
        "id": "1:23177",
        "name": "Elmwood Av & 2nd St",
        "lat": 40.152521,
        "lon": -74.978129
    },
    {
        "id": "1:23179",
        "name": "Brownsville Rd & Somers Av",
        "lat": 40.154152,
        "lon": -74.972411
    },
    {
        "id": "1:24490",
        "name": "City Av & Lancaster Av - FS",
        "lat": 39.988357,
        "lon": -75.253731
    },
    {
        "id": "1:23161",
        "name": "Bustleton Av & 5th Av",
        "lat": 40.145455,
        "lon": -75.004531
    },
    {
        "id": "1:24491",
        "name": "City Av & 63rd St",
        "lat": 39.989656,
        "lon": -75.250963
    },
    {
        "id": "1:24492",
        "name": "Cardinal Av & Overbrook Av",
        "lat": 39.992157,
        "lon": -75.240217
    },
    {
        "id": "1:23160",
        "name": "Bustleton Av & Pine Hill Rd - FS",
        "lat": 40.143467,
        "lon": -75.005277
    },
    {
        "id": "1:24493",
        "name": "Overbrook Av & 58th St - FS",
        "lat": 39.991409,
        "lon": -75.241518
    },
    {
        "id": "1:23163",
        "name": "Bustleton Av & Stoltz Av",
        "lat": 40.149234,
        "lon": -75.003076
    },
    {
        "id": "1:23162",
        "name": "Bustleton Av & Park Ln - MBFS",
        "lat": 40.147068,
        "lon": -75.003906
    },
    {
        "id": "1:24494",
        "name": "Overbrook Av & 59th St",
        "lat": 39.990271,
        "lon": -75.244014
    },
    {
        "id": "1:23165",
        "name": "Bustleton Pk & Ruth St - FS",
        "lat": 40.152523,
        "lon": -75.001766
    },
    {
        "id": "1:24495",
        "name": "59th St & Drexel Rd",
        "lat": 39.989154,
        "lon": -75.243332
    },
    {
        "id": "1:24496",
        "name": "59th St & Woodbine Av",
        "lat": 39.9881,
        "lon": -75.242531
    },
    {
        "id": "1:23164",
        "name": "Bustleton Av & Street Rd",
        "lat": 40.150375,
        "lon": -75.002619
    },
    {
        "id": "1:10",
        "name": "Roosevelt Blvd & Woodward St",
        "lat": 40.071393,
        "lon": -75.038281
    },
    {
        "id": "1:24497",
        "name": "59th St & Malvern Av",
        "lat": 39.986437,
        "lon": -75.241177
    },
    {
        "id": "1:23167",
        "name": "Bridgetown Pk & Arbor Ln",
        "lat": 40.15573,
        "lon": -74.997152
    },
    {
        "id": "1:23166",
        "name": "Bustleton Pk & Bridgetown Pk",
        "lat": 40.153584,
        "lon": -75.001369
    },
    {
        "id": "1:24498",
        "name": "Malvern Av & Hobart St",
        "lat": 39.986917,
        "lon": -75.239829
    },
    {
        "id": "1:23169",
        "name": "Bridgetown Pk & Bertha St",
        "lat": 40.157643,
        "lon": -74.992829
    },
    {
        "id": "1:24499",
        "name": "Malvern Av & 58th St",
        "lat": 39.987496,
        "lon": -75.238587
    },
    {
        "id": "1:23168",
        "name": "Bridgetown Pk & Milton St",
        "lat": 40.156536,
        "lon": -74.995287
    },
    {
        "id": "1:23150",
        "name": "Bustleton Av & Byberry Rd",
        "lat": 40.123435,
        "lon": -75.015375
    },
    {
        "id": "1:24480",
        "name": "58th St & Lebanon Av",
        "lat": 39.986325,
        "lon": -75.237397
    },
    {
        "id": "1:24481",
        "name": "58th St & Malvern  Av",
        "lat": 39.987558,
        "lon": -75.238386
    },
    {
        "id": "1:24482",
        "name": "58th St & Woodcrest Av",
        "lat": 39.988478,
        "lon": -75.239128
    },
    {
        "id": "1:23152",
        "name": "Bustleton Av & Denise Dr",
        "lat": 40.126119,
        "lon": -75.014389
    },
    {
        "id": "1:23151",
        "name": "Bustleton Av & Trevose Rd",
        "lat": 40.124567,
        "lon": -75.014883
    },
    {
        "id": "1:24483",
        "name": "Woodcrest Av & Hobart St",
        "lat": 39.988016,
        "lon": -75.240464
    },
    {
        "id": "1:23154",
        "name": "Bustleton Av & Poquessing Av",
        "lat": 40.128696,
        "lon": -75.013746
    },
    {
        "id": "1:24484",
        "name": "Woodcrest Av & 59th St",
        "lat": 39.987447,
        "lon": -75.241682
    },
    {
        "id": "1:24485",
        "name": "59th St & Woodbine Av",
        "lat": 39.988028,
        "lon": -75.242295
    },
    {
        "id": "1:23153",
        "name": "Bustleton Av & Hazell Ln",
        "lat": 40.126841,
        "lon": -75.014207
    },
    {
        "id": "1:41",
        "name": "16th St & Snyder Av",
        "lat": 39.924771,
        "lon": -75.17292
    },
    {
        "id": "1:40",
        "name": "20th St & Johnston St",
        "lat": 39.916621,
        "lon": -75.181094
    },
    {
        "id": "1:43",
        "name": "16th St & Pine St",
        "lat": 39.945904,
        "lon": -75.168287
    },
    {
        "id": "1:42",
        "name": "16th St & Washington Av",
        "lat": 39.938196,
        "lon": -75.169968
    },
    {
        "id": "1:34",
        "name": "17th St & Market St",
        "lat": 39.953124,
        "lon": -75.168473
    },
    {
        "id": "1:33",
        "name": "17th St & Spring Garden St",
        "lat": 39.963223,
        "lon": -75.166334
    },
    {
        "id": "1:36",
        "name": "17th St & Washington Av",
        "lat": 39.938592,
        "lon": -75.171655
    },
    {
        "id": "1:35",
        "name": "17th St & Pine St",
        "lat": 39.946264,
        "lon": -75.169997
    },
    {
        "id": "1:38",
        "name": "19th St & Moyamensing Av",
        "lat": 39.91428,
        "lon": -75.179732
    },
    {
        "id": "1:37",
        "name": "17th St & Snyder Av",
        "lat": 39.925122,
        "lon": -75.174548
    },
    {
        "id": "1:39",
        "name": "20th St & Johnston St",
        "lat": 39.916809,
        "lon": -75.181282
    },
    {
        "id": "1:24486",
        "name": "59th St & Drexel Rd",
        "lat": 39.989011,
        "lon": -75.243072
    },
    {
        "id": "1:23155",
        "name": "Bustleton Av & Philmont Av",
        "lat": 40.131592,
        "lon": -75.012202
    },
    {
        "id": "1:24487",
        "name": "Drexel Rd & Upland Way",
        "lat": 39.988301,
        "lon": -75.246312
    },
    {
        "id": "1:23158",
        "name": "Bustleton Av & Woodland Av",
        "lat": 40.13999,
        "lon": -75.006624
    },
    {
        "id": "1:24488",
        "name": "City Av & 63rd St",
        "lat": 39.989896,
        "lon": -75.250715
    },
    {
        "id": "1:24489",
        "name": "Lancaster Av & Church Rd - Philadelphia",
        "lat": 39.987865,
        "lon": -75.252894
    },
    {
        "id": "1:23157",
        "name": "Bustleton Av & Dolton Rd",
        "lat": 40.137931,
        "lon": -75.007394
    },
    {
        "id": "1:23159",
        "name": "Bustleton Av & Front St",
        "lat": 40.142058,
        "lon": -75.00583
    },
    {
        "id": "1:24470",
        "name": "57th St & Thompson St",
        "lat": 39.971951,
        "lon": -75.234376
    },
    {
        "id": "1:24471",
        "name": "57th St & Master St",
        "lat": 39.973219,
        "lon": -75.23462
    },
    {
        "id": "1:23141",
        "name": "Rennard St & Gardner St",
        "lat": 40.120928,
        "lon": -75.034968
    },
    {
        "id": "1:23140",
        "name": "Tomlinson Rd & Rennard St",
        "lat": 40.120361,
        "lon": -75.036379
    },
    {
        "id": "1:24472",
        "name": "57th St & Media St",
        "lat": 39.974826,
        "lon": -75.234935
    },
    {
        "id": "1:23143",
        "name": "Rennard St & Greiner Rd",
        "lat": 40.121953,
        "lon": -75.031896
    },
    {
        "id": "1:24473",
        "name": "57th St & Lansdowne Av",
        "lat": 39.976379,
        "lon": -75.235226
    },
    {
        "id": "1:24474",
        "name": "57th St & Stewart St - FS",
        "lat": 39.977548,
        "lon": -75.235447
    },
    {
        "id": "1:23142",
        "name": "Rennard St & Rennard Pl",
        "lat": 40.121335,
        "lon": -75.033829
    },
    {
        "id": "1:30",
        "name": "Pulaski Av & Pike St",
        "lat": 40.013264,
        "lon": -75.157404
    },
    {
        "id": "1:32",
        "name": "17th St & Girard Av",
        "lat": 39.972153,
        "lon": -75.164352
    },
    {
        "id": "1:31",
        "name": "17th St & Huntingdon St",
        "lat": 39.993099,
        "lon": -75.159784
    },
    {
        "id": "1:23",
        "name": "Roosevelt Blvd & Pratt St - FS",
        "lat": 40.029006,
        "lon": -75.090599
    },
    {
        "id": "1:22",
        "name": "Roosevelt Blvd & Cottman Av",
        "lat": 40.044862,
        "lon": -75.05453
    },
    {
        "id": "1:25",
        "name": "Roosevelt Blvd & 5th St",
        "lat": 40.024267,
        "lon": -75.133011
    },
    {
        "id": "1:24",
        "name": "Roosevelt Blvd & Tower Blvd - FS",
        "lat": 40.029484,
        "lon": -75.101085
    },
    {
        "id": "1:28",
        "name": "Wissahickon Transportation Center - onsite",
        "lat": 40.014897,
        "lon": -75.20724
    },
    {
        "id": "1:24475",
        "name": "57th St & Jefferson St",
        "lat": 39.979343,
        "lon": -75.235785
    },
    {
        "id": "1:23145",
        "name": "Rennard St & Ferndale St",
        "lat": 40.1192,
        "lon": -75.024798
    },
    {
        "id": "1:23144",
        "name": "Rennard St & Larkspur St",
        "lat": 40.121758,
        "lon": -75.029494
    },
    {
        "id": "1:24476",
        "name": "Oxford St & 57th St - FS",
        "lat": 39.980834,
        "lon": -75.236384
    },
    {
        "id": "1:23147",
        "name": "Bustleton Av & Hendrix St",
        "lat": 40.118829,
        "lon": -75.017994
    },
    {
        "id": "1:24477",
        "name": "Orthodox St & Tackawanna St",
        "lat": 40.011924,
        "lon": -75.080929
    },
    {
        "id": "1:24478",
        "name": "Orthodox St  & Torresdale Av",
        "lat": 40.010447,
        "lon": -75.079447
    },
    {
        "id": "1:23146",
        "name": "Rennard St & Gifford St",
        "lat": 40.117879,
        "lon": -75.022296
    },
    {
        "id": "1:24479",
        "name": "57th St & Upland Way - FS",
        "lat": 39.985075,
        "lon": -75.23701
    },
    {
        "id": "1:23149",
        "name": "Bustleton Av & Somerton Av",
        "lat": 40.121894,
        "lon": -75.016153
    },
    {
        "id": "1:23148",
        "name": "Bustleton Av & Leo Mall Dr",
        "lat": 40.119791,
        "lon": -75.017408
    },
    {
        "id": "1:24460",
        "name": "57th St & Locust St",
        "lat": 39.95695,
        "lon": -75.23568
    },
    {
        "id": "1:23130",
        "name": "Bustleton Av & Gorman St - FS",
        "lat": 40.105231,
        "lon": -75.027504
    },
    {
        "id": "1:24461",
        "name": "57th St & Walnut St",
        "lat": 39.958056,
        "lon": -75.235453
    },
    {
        "id": "1:23132",
        "name": "Bustleton Av & Kelvin Av",
        "lat": 40.111085,
        "lon": -75.024311
    },
    {
        "id": "1:25793",
        "name": "Delaware Av & Frankford Av",
        "lat": 39.964945,
        "lon": -75.134012
    },
    {
        "id": "1:24462",
        "name": "57th St & Chestnut St",
        "lat": 39.959573,
        "lon": -75.23513
    },
    {
        "id": "1:25794",
        "name": "Columbus Blvd & Spring Garden St",
        "lat": 39.960338,
        "lon": -75.137326
    },
    {
        "id": "1:24463",
        "name": "56th St & Arch St",
        "lat": 39.962407,
        "lon": -75.232477
    },
    {
        "id": "1:23131",
        "name": "Bustleton Av & Lawler St",
        "lat": 40.109882,
        "lon": -75.025135
    },
    {
        "id": "1:61",
        "name": "Frankford Transportation Center - MFL",
        "lat": 40.022929,
        "lon": -75.077861
    },
    {
        "id": "1:60",
        "name": "Allegheny Station - MFL",
        "lat": 39.996471,
        "lon": -75.11344
    },
    {
        "id": "1:65",
        "name": "Frankford Av & Lehigh Av",
        "lat": 39.987122,
        "lon": -75.122366
    },
    {
        "id": "1:64",
        "name": "Frankford Av & Torresdale Av",
        "lat": 40.006135,
        "lon": -75.09183
    },
    {
        "id": "1:55",
        "name": "33rd St & Cecil B Moore Av Loop",
        "lat": 39.982394,
        "lon": -75.188946
    },
    {
        "id": "1:58",
        "name": "Cecil B Moore Av & Broad St",
        "lat": 39.978618,
        "lon": -75.157972
    },
    {
        "id": "1:57",
        "name": "Cecil B Moore Av & 20th St",
        "lat": 39.979853,
        "lon": -75.167513
    },
    {
        "id": "1:24464",
        "name": "56th St & Race St",
        "lat": 39.963951,
        "lon": -75.232189
    },
    {
        "id": "1:25795",
        "name": "Spring Garden St & 2nd St",
        "lat": 39.960749,
        "lon": -75.141328
    },
    {
        "id": "1:23134",
        "name": "Tomlinson Rd & Ferndale St - MBNS",
        "lat": 40.115369,
        "lon": -75.027009
    },
    {
        "id": "1:23133",
        "name": "Tomlinson Rd & Gifford St",
        "lat": 40.113933,
        "lon": -75.02452
    },
    {
        "id": "1:24465",
        "name": "56th St & Vine St",
        "lat": 39.965369,
        "lon": -75.231878
    },
    {
        "id": "1:23136",
        "name": "Tomlinson Rd & Kevin Ct",
        "lat": 40.116979,
        "lon": -75.031001
    },
    {
        "id": "1:24466",
        "name": "Vine St & 57th St",
        "lat": 39.965872,
        "lon": -75.233743
    },
    {
        "id": "1:24467",
        "name": "Orthodox St & Mulberry St",
        "lat": 40.012739,
        "lon": -75.081811
    },
    {
        "id": "1:24468",
        "name": "57th St & Haverford Av - FS",
        "lat": 39.968157,
        "lon": -75.233666
    },
    {
        "id": "1:23137",
        "name": "Tomlinson Rd & Greiner Rd",
        "lat": 40.118495,
        "lon": -75.033454
    },
    {
        "id": "1:24469",
        "name": "57th St & Girard Av",
        "lat": 39.970433,
        "lon": -75.234108
    },
    {
        "id": "1:23139",
        "name": "Tomlinson Rd & Philmont Pl",
        "lat": 40.119473,
        "lon": -75.035047
    },
    {
        "id": "1:24450",
        "name": "Adams Av & Castor Av - FS",
        "lat": 40.021242,
        "lon": -75.093992
    },
    {
        "id": "1:25781",
        "name": "Washington Av & 13th St",
        "lat": 39.937552,
        "lon": -75.164728
    },
    {
        "id": "1:23121",
        "name": "Bustleton Av & Grant Av - FS",
        "lat": 40.085782,
        "lon": -75.036877
    },
    {
        "id": "1:24451",
        "name": "57th St & Baltimore Av - FS",
        "lat": 39.946529,
        "lon": -75.237858
    },
    {
        "id": "1:24452",
        "name": "Adams Av & Orthodox St",
        "lat": 40.019619,
        "lon": -75.094485
    },
    {
        "id": "1:23120",
        "name": "Old Bustleton Av & Welsh Rd",
        "lat": 40.082307,
        "lon": -75.037866
    },
    {
        "id": "1:52",
        "name": "Front St & Dauphin St",
        "lat": 39.984888,
        "lon": -75.132205
    },
    {
        "id": "1:51",
        "name": "Kensington Av & Allegheny Av",
        "lat": 39.996774,
        "lon": -75.113084
    },
    {
        "id": "1:54",
        "name": "Cecil B Moore Av & 20th St",
        "lat": 39.979941,
        "lon": -75.167253
    },
    {
        "id": "1:53",
        "name": "Cecil B Moore Av & Broad St",
        "lat": 39.978707,
        "lon": -75.157724
    },
    {
        "id": "1:45",
        "name": "16th St & Girard Av",
        "lat": 39.971737,
        "lon": -75.162628
    },
    {
        "id": "1:47",
        "name": "17th St & Lehigh Av",
        "lat": 39.994391,
        "lon": -75.159341
    },
    {
        "id": "1:46",
        "name": "Huntingdon St & 16th St - FS",
        "lat": 39.992882,
        "lon": -75.158379
    },
    {
        "id": "1:48",
        "name": "Hunting Park Av & Pulaski Av",
        "lat": 40.013935,
        "lon": -75.157992
    },
    {
        "id": "1:24453",
        "name": "57th St & Catherine St",
        "lat": 39.950143,
        "lon": -75.237116
    },
    {
        "id": "1:23123",
        "name": "Bustleton Av & Fulmer St",
        "lat": 40.088143,
        "lon": -75.034616
    },
    {
        "id": "1:23122",
        "name": "Bustleton Av & Murray St",
        "lat": 40.086915,
        "lon": -75.03577
    },
    {
        "id": "1:24454",
        "name": "Orthodox St & Paul St",
        "lat": 40.014309,
        "lon": -75.084747
    },
    {
        "id": "1:25785",
        "name": "Wynnefield Av & 53rd St",
        "lat": 39.991697,
        "lon": -75.231144
    },
    {
        "id": "1:23125",
        "name": "Haldeman Av & Bustleton Av - FS",
        "lat": 40.094314,
        "lon": -75.029932
    },
    {
        "id": "1:25786",
        "name": "Wynnefiled Av & 51st St",
        "lat": 39.99154,
        "lon": -75.228155
    },
    {
        "id": "1:24455",
        "name": "57th St & Cedar Av",
        "lat": 39.951588,
        "lon": -75.236793
    },
    {
        "id": "1:24456",
        "name": "Orthodox St & Hedge St",
        "lat": 40.013573,
        "lon": -75.083332
    },
    {
        "id": "1:23124",
        "name": "Bustleton Av & Bowler St",
        "lat": 40.090931,
        "lon": -75.032648
    },
    {
        "id": "1:24457",
        "name": "57th St & Larchwood Av",
        "lat": 39.953176,
        "lon": -75.23647
    },
    {
        "id": "1:23127",
        "name": "Haldeman Av & Conwell Av",
        "lat": 40.095772,
        "lon": -75.025309
    },
    {
        "id": "1:23126",
        "name": "Haldeman Av & Clark St",
        "lat": 40.094976,
        "lon": -75.02781
    },
    {
        "id": "1:25789",
        "name": "Belmont Av & Hayes Manor Dr - FS",
        "lat": 39.997549,
        "lon": -75.218826
    },
    {
        "id": "1:24458",
        "name": "57th St & Pine St",
        "lat": 39.954657,
        "lon": -75.236159
    },
    {
        "id": "1:23129",
        "name": "Bustleton Av & Proctor Rd",
        "lat": 40.103448,
        "lon": -75.028271
    },
    {
        "id": "1:24459",
        "name": "57th St & Spruce St",
        "lat": 39.955719,
        "lon": -75.235932
    },
    {
        "id": "1:23128",
        "name": "Haldeman Av & Montour St",
        "lat": 40.096699,
        "lon": -75.022334
    },
    {
        "id": "1:23110",
        "name": "Bustleton Av & Hoffnagle St",
        "lat": 40.064828,
        "lon": -75.051445
    },
    {
        "id": "1:25771",
        "name": "Belmont Av & Belmont Mansion Dr",
        "lat": 39.992897,
        "lon": -75.217552
    },
    {
        "id": "1:25772",
        "name": "Belmont Av & Edgely Av",
        "lat": 39.994263,
        "lon": -75.217914
    },
    {
        "id": "1:24441",
        "name": "58th St & Warrington Av",
        "lat": 39.937942,
        "lon": -75.230997
    },
    {
        "id": "1:11132",
        "name": "Ogontz Av & Limekiln Pk - FS",
        "lat": 40.048242,
        "lon": -75.150797
    },
    {
        "id": "1:80",
        "name": "Ogontz Av & Stenton Av",
        "lat": 40.051743,
        "lon": -75.150221
    },
    {
        "id": "1:11133",
        "name": "Ogontz Av & Medary Av",
        "lat": 40.049967,
        "lon": -75.150441
    },
    {
        "id": "1:11134",
        "name": "Ogontz Av & Middletown St",
        "lat": 40.062323,
        "lon": -75.151919
    },
    {
        "id": "1:13795",
        "name": "Township Line Rd & Cedar Rd",
        "lat": 40.078134,
        "lon": -75.112227
    },
    {
        "id": "1:82",
        "name": "Olney Transportation Center - BSL",
        "lat": 40.039066,
        "lon": -75.144749
    },
    {
        "id": "1:13794",
        "name": "Township Line Rd & Burmont Rd",
        "lat": 39.956767,
        "lon": -75.3209
    },
    {
        "id": "1:11135",
        "name": "Ogontz Av & Roselyn St",
        "lat": 40.045754,
        "lon": -75.150292
    },
    {
        "id": "1:85",
        "name": "Ogontz Av & 66th Av",
        "lat": 40.054562,
        "lon": -75.149655
    },
    {
        "id": "1:84",
        "name": "Ogontz Av & Chelten Av - FS",
        "lat": 40.051743,
        "lon": -75.150068
    },
    {
        "id": "1:11137",
        "name": "Ogontz Av & Tulpehocken St",
        "lat": 40.065088,
        "lon": -75.155054
    },
    {
        "id": "1:13799",
        "name": "Township Line Rd & Lansdowne Av - FS",
        "lat": 39.967418,
        "lon": -75.296989
    },
    {
        "id": "1:11138",
        "name": "Ogontz Av & Washington Ln",
        "lat": 40.068867,
        "lon": -75.156932
    },
    {
        "id": "1:86",
        "name": "Ogontz Av & Haines St",
        "lat": 40.058354,
        "lon": -75.149155
    },
    {
        "id": "1:13798",
        "name": "Township Line Rd & Church Rd",
        "lat": 40.070182,
        "lon": -75.098435
    },
    {
        "id": "1:78",
        "name": "Ogontz Av & Haines St",
        "lat": 40.058542,
        "lon": -75.149331
    },
    {
        "id": "1:77",
        "name": "Ogontz Av & 69th Av",
        "lat": 40.059883,
        "lon": -75.150213
    },
    {
        "id": "1:23119",
        "name": "Old Bustleton Av & Ambassador St",
        "lat": 40.079905,
        "lon": -75.040257
    },
    {
        "id": "1:79",
        "name": "Ogontz Av & 66th Av",
        "lat": 40.054794,
        "lon": -75.149784
    },
    {
        "id": "1:24442",
        "name": "58th St & Florence Av",
        "lat": 39.939024,
        "lon": -75.232281
    },
    {
        "id": "1:23112",
        "name": "Bustleton Av & Bergen St",
        "lat": 40.069386,
        "lon": -75.050581
    },
    {
        "id": "1:23111",
        "name": "Bustleton Av & Strahle St",
        "lat": 40.066478,
        "lon": -75.051153
    },
    {
        "id": "1:24443",
        "name": "58th St & Willows Av",
        "lat": 39.940311,
        "lon": -75.233506
    },
    {
        "id": "1:23114",
        "name": "Bustleton Av & Mower St",
        "lat": 40.072199,
        "lon": -75.048153
    },
    {
        "id": "1:24444",
        "name": "58th St & Whitby Av",
        "lat": 39.941473,
        "lon": -75.234943
    },
    {
        "id": "1:25776",
        "name": "Ford Rd & Belmont Av - MBNS",
        "lat": 40.001994,
        "lon": -75.218849
    },
    {
        "id": "1:24445",
        "name": "58th St & Thomas Av",
        "lat": 39.942645,
        "lon": -75.236321
    },
    {
        "id": "1:23113",
        "name": "Bustleton Av & Tustin St",
        "lat": 40.070775,
        "lon": -75.04945
    },
    {
        "id": "1:24446",
        "name": "58th St & Hoffman Av",
        "lat": 39.943843,
        "lon": -75.237723
    },
    {
        "id": "1:23116",
        "name": "Bustleton Av & Benton St",
        "lat": 40.074799,
        "lon": -75.045987
    },
    {
        "id": "1:23115",
        "name": "Bustleton Av & Tolbut St - MBFS",
        "lat": 40.0739,
        "lon": -75.046725
    },
    {
        "id": "1:24447",
        "name": "Adams Av & Roosevelt Blvd - FS",
        "lat": 40.025703,
        "lon": -75.096998
    },
    {
        "id": "1:23118",
        "name": "Old Bustleton Av & Gregg St",
        "lat": 40.078356,
        "lon": -75.041803
    },
    {
        "id": "1:24448",
        "name": "Adams Av & Arrott St",
        "lat": 40.023271,
        "lon": -75.095082
    },
    {
        "id": "1:24449",
        "name": "58th St & Baltimore Av",
        "lat": 39.945774,
        "lon": -75.240044
    },
    {
        "id": "1:23117",
        "name": "Old Bustleton Av & Winchester - FS",
        "lat": 40.07736,
        "lon": -75.042803
    },
    {
        "id": "1:25761",
        "name": "City Av & 59th St",
        "lat": 39.992112,
        "lon": -75.245782
    },
    {
        "id": "1:24430",
        "name": "63rd St & Lindbergh Blvd",
        "lat": 39.921018,
        "lon": -75.223997
    },
    {
        "id": "1:70",
        "name": "3rd St & Spring Garden St",
        "lat": 39.960629,
        "lon": -75.14336
    },
    {
        "id": "1:11121",
        "name": "Ogontz Av & Andrews Av",
        "lat": 40.061358,
        "lon": -75.151225
    },
    {
        "id": "1:11122",
        "name": "Ogontz Av & Andrews Av",
        "lat": 40.061277,
        "lon": -75.151036
    },
    {
        "id": "1:72",
        "name": "Frankford Av & Lehigh Av",
        "lat": 39.986944,
        "lon": -75.12239
    },